     2.11           OBSERVATION DATA    GPS(GPS)            RINEX VERSION / TYPE
cnvtToRINEX 3.14.0  convertToRINEX OPR  20241124 004038 UTC PGM / RUN BY / DATE 
----------------------------------------------------------- COMMENT             
ALAB                                                        MARKER NAME         
ALAB                                                        MARKER NUMBER       
GNSS Observer       Trimble                                 OBSERVER / AGENCY   
4541260308          TRIMBLE NETRS       1.32                REC # / TYPE / VERS 
19991869            ASH701945D_M    NONE                    ANT # / TYPE        
 -2455551.1967 -4767159.8151  3441689.3525                  APPROX POSITION XYZ 
        0.5350        0.0000        0.0000                  ANTENNA: DELTA H/E/N
     1     1     0                                          WAVELENGTH FACT L1/2
     4    C1    L1    L2    P2                              # / TYPES OF OBSERV 
  2024    11    23     0     0    0.0000000     GPS         TIME OF FIRST OBS   
  2024    11    23    23    59   30.0000000     GPS         TIME OF LAST OBS    
     0                                                      RCV CLOCK OFFS APPL 
    18                                                      LEAP SECONDS        
    31                                                      # OF SATELLITES     
   G02   715   690   579   579                              PRN / # OF OBS      
   G03   645   642   645   645                              PRN / # OF OBS      
   G04   832   816   749   749                              PRN / # OF OBS      
   G05   645   630   624   624                              PRN / # OF OBS      
   G06   592   579   589   589                              PRN / # OF OBS      
   G07   893   891   887   887                              PRN / # OF OBS      
   G08   815   798   799   799                              PRN / # OF OBS      
   G09   773   767   769   769                              PRN / # OF OBS      
   G10   864   853   854   854                              PRN / # OF OBS      
   G11   667   664   645   645                              PRN / # OF OBS      
   G12   746   740   743   743                              PRN / # OF OBS      
   G13   694   668   507   507                              PRN / # OF OBS      
   G14   798   789   742   742                              PRN / # OF OBS      
   G15   868   842   827   827                              PRN / # OF OBS      
   G16   726   701   560   560                              PRN / # OF OBS      
   G17   694   692   681   681                              PRN / # OF OBS      
   G18   855   848   836   836                              PRN / # OF OBS      
   G19   733   728   690   690                              PRN / # OF OBS      
   G20   704   681   555   555                              PRN / # OF OBS      
   G21   584   582   545   545                              PRN / # OF OBS      
   G22   884   873   827   827                              PRN / # OF OBS      
   G23   776   771   736   736                              PRN / # OF OBS      
   G24   612   593   601   601                              PRN / # OF OBS      
   G25   619   605   615   615                              PRN / # OF OBS      
   G26   809   787   796   796                              PRN / # OF OBS      
   G27   717   689   703   703                              PRN / # OF OBS      
   G28   595   585   546   546                              PRN / # OF OBS      
   G29   773   761   752   752                              PRN / # OF OBS      
   G30   833   811   821   821                              PRN / # OF OBS      
   G31   651   646   648   648                              PRN / # OF OBS      
   G32   729   727   723   723                              PRN / # OF OBS      
CARRIER PHASE MEASUREMENTS: PHASE SHIFTS REMOVED            COMMENT             
                                                            END OF HEADER       
 24 11 23  0  0  0.0000000  0  9G02G07G13G14G15G17G19G22G30         
  23600108.117 2  -1140068.290 2   -572611.35445  23600103.62145
  22131743.109 6 -16639249.906 6 -12135684.75548  22131735.97348
  21277597.594 6 -10438013.764 6  -7079444.94248  21277591.51248
  20557896.516 7 -19845998.634 7 -15764953.46948  20557889.37948
  23593148.35911                                
  20588035.844 6 -20596760.284 6 -16077554.25149  20588028.76649
  22820342.820 5 -13139519.862 5  -7498141.45847  22820337.14847
  21124319.539 7 -18351917.667 7 -11987162.86648  21124312.93048
  20563135.672 7 -16408864.449 7 -16989186.30849  20563130.17649
 24 11 23  0  0 30.0000000  0  8G02G07G13G14G17G19G22G30            
  23599302.563 1  -1144299.483 1   -575908.23945  23599299.23845
  22142703.594 6 -16581651.242 6 -12090802.71648  22142697.21948
  21270955.734 6 -10472920.231 6  -7106644.74548  21270948.53948
  20558999.000 7 -19840206.097 7 -15760439.79748  20558991.27748
  20578733.086 7 -20645646.937 7 -16115647.68249  20578725.83249
  22801346.602 5 -13239342.188 5  -7575924.87547  22801340.69547
  21122056.563 7 -18363807.460 7 -11996427.60348  21122050.01248
  20565767.953 7 -16395031.406 7 -16978407.31149  20565762.04749
 24 11 23  0  1  0.0000000  0  8G02G07G13G14G17G19G22G30            
  23598591.64111                                
  22153729.055 6 -16523711.421 6 -12045654.82348  22153722.73848
  21264423.453 7 -10507244.721 7  -7133391.05048  21264416.66848
  20560141.289 6 -19834199.664 6 -15755759.45048  20560134.21148
  20569529.469 6 -20694012.390 6 -16153334.97049  20569522.50849
  22782392.453 5 -13338945.961 5  -7653538.00947  22782386.48847
  21119839.852 7 -18375462.349 7 -12005509.31348  21119831.83648
  20568475.961 7 -16380801.779 7 -16967319.28149  20568470.23049
 24 11 23  0  1 30.0000000  0  8G02G07G13G14G17G19G22G30            
  23597971.16411  -1151298.49511                
  22164814.766 6 -16465455.012 6 -12000260.26148  22164808.85948
  21257997.758 6 -10541011.102 6  -7159702.48248  21257990.68048
  20561320.789 7 -19828004.719 7 -15750932.21148  20561313.65248
  20560420.008 6 -20741880.428 6 -16190634.67949  20560412.87149
  22763476.406 6 -13438353.617 6  -7730998.32147  22763469.15247
  21117661.797 7 -18386908.803 7 -12014428.60148  21117653.66448
  20571254.820 7 -16366199.375 7 -16955940.78049  20571248.85549
 24 11 23  0  2  0.0000000  0  8G02G07G13G14G17G19G22G30            
  23597444.89111  -1154065.04511                
  22175965.492 6 -16406858.056 6 -11954600.32548  22175959.70348
  21251683.875 6 -10574193.238 6  -7185558.63548  21251676.44548
  20562539.570 7 -19821597.605 7 -15745939.62648  20562532.78548
  20551410.766 7 -20789225.539 7 -16227526.90949  20551403.27749
  22744602.281 6 -13537538.470 6  -7808285.00947  22744595.61347
  21115527.289 7 -18398122.999 7 -12023166.90948  21115519.62548
  20574109.242 7 -16351198.894 7 -16944252.08649  20574103.21949
 24 11 23  0  2 30.0000000  0  8G02G07G13G14G17G19G22G30            
  23597011.22711                                
  22187181.305 6 -16347918.563 6 -11908673.45648  22187175.69148
  21245480.742 6 -10606788.218 6  -7210957.28448  21245474.19148
  20563799.461 7 -19814977.223 7 -15740780.87648  20563792.38348
  20542501.563 6 -20836044.864 6 -16264009.42849  20542493.84049
  22725770.773 6 -13636496.662 6  -7885395.10447  22725764.86747
  21113438.180 7 -18409104.025 7 -12031723.53448  21113429.75448
  20577039.680 7 -16335797.683 7 -16932251.13549  20577033.89149
 24 11 23  0  3  0.0000000  0  8G02G07G13G14G17G19G22G30            
  23596672.40611                                
  22198458.461 6 -16288654.841 6 -11862493.95148  22198453.32048
  21239387.078 6 -10638812.668 6  -7235911.35348  21239380.23448
  20565096.578 7 -19808162.511 7 -15735470.69148  20565088.85548
  20533689.016 7 -20882355.698 7 -16300095.71949  20533680.82449
  22706979.211 5 -13735243.949 5  -7962340.87647  22706973.94947
  21111388.984 7 -18419871.728 7 -12040113.92948  21111380.67648
  20580043.430 7 -16320013.090 7 -16919951.45449  20580037.99249
 24 11 23  0  3 30.0000000  0  8G02G07G13G14G17G19G22G30            
  23596426.21911                                
  22209799.563 6 -16229059.428 6 -11816055.98548  22209793.30548
  21233402.930 7 -10670258.064 7  -7260414.21448  21233396.43848
  20566431.414 7 -19801146.600 7 -15730003.71148  20566424.27748
  20524974.430 7 -20928149.412 7 -16335779.05949  20524966.53149
  22688230.734 6 -13833770.557 6  -8039114.70147  22688224.77047
  21109381.828 6 -18430418.795 6 -12048332.40548  21109373.52048
  20583121.820 7 -16303836.646 7 -16907346.43249  20583115.79749
 24 11 23  0  4  0.0000000  0  8G02G07G13G14G17G19G22G30            
  23596273.203 3  -1160219.491 3                
  22221201.219 6 -16169142.226 6 -11769367.29648  22221195.43048
  21227527.742 7 -10701133.100 7  -7284472.63348  21227520.54748
  20567802.742 6 -19793939.985 6 -15724388.13848  20567795.48848
  20516357.109 7 -20973434.809 7 -16371066.30649  20516348.97749
  22669521.992 6 -13932083.977 6  -8115722.38647  22669515.61747
  21107414.727 6 -18440756.194 6 -12056387.48748  21107406.18448
  20586272.906 7 -16287277.346 7 -16894443.09049  20586266.82449
 24 11 23  0  4 30.0000000  0  8G02G07G13G14G17G19G22G30            
  23596214.711 2  -1160526.585 2                
  22232668.672 6 -16108882.880 6 -11722412.00248  22232662.64848
  21221764.859 7 -10731415.860 7  -7308069.54348  21221757.78148
  20569214.180 7 -19786522.567 7 -15718608.30448  20569207.21948
  20507840.117 6 -21018189.610 6 -16405940.10949  20507832.68849
  22650859.625 6 -14030161.456 6  -8192146.24847  22650852.02047
  21105491.664 6 -18450864.187 6 -12064263.82848  21105483.47348
  20589500.734 7 -16270313.629 7 -16881224.59749  20589495.65249
 24 11 23  0  5  0.0000000  0  9G02G07G13G14G15G17G19G22G30         
  23596249.91412  -1160338.82312                
  22244198.727 6 -16048290.564 6 -11675197.24848  22244192.87948
  21216113.102 7 -10761114.424 7  -7331211.23348  21216105.78948
  20570664.023 7 -19778904.478 7 -15712672.09148  20570656.71148
  23482878.28911    618329.46411                
  20499423.219 7 -21062422.608 7 -16440407.31449  20499415.43849
  22632238.836 6 -14128010.129 6  -8268391.80547  22632231.52347
  21103609.336 6 -18460753.404 6 -12071969.67348  21103601.14548
  20592804.477 7 -16252954.020 7 -16867697.62449  20592798.92249
 24 11 23  0  5 30.0000000  0  9G02G07G13G14G15G17G19G22G30         
  23596381.06311                                
  22255793.805 6 -15987360.741 6 -11627719.50748  22255787.31348
  21210573.711 6 -10790222.985 6  -7353893.20048  21210567.51248
  20572152.547 7 -19771081.583 7 -15706576.29948  20572145.00048
  23472388.438 1    563210.867 1    535511.29155  23472384.99655
  20491106.258 6 -21106128.206 6 -16474463.54949  20491098.41849
  22613663.531 6 -14225623.038 6  -8344453.66147  22613656.74647
  21101769.398 6 -18470419.874 6 -12079501.96548  21101761.55948
  20596185.023 7 -16235192.909 7 -16853857.79749  20596179.41049
 24 11 23  0  6  0.0000000  0  9G02G07G13G14G15G17G19G22G30         
  23596606.44511                                
  22267450.117 6 -15926102.230 6 -11579985.63548  22267444.62148
  21205145.930 7 -10818749.272 7  -7376121.42948  21205138.85248
  20573678.578 7 -19763063.256 7 -15700328.22548  20573671.26648
  23461996.609 1    508608.943 1    492964.44945  23461995.33645
  20482887.414 6 -21149314.057 6 -16508114.79649  20482880.57049
  22595131.531 6 -14323006.125 6  -8420336.41747  22595125.68447
  21099970.727 6 -18479873.486 6 -12086868.37148  21099962.35948
  20599638.625 7 -16217038.210 7 -16839711.28049  20599633.18849
 24 11 23  0  6 30.0000000  0  8G07G13G14G15G17G19G22G30            
  22279170.461 6 -15864507.898 6 -11531990.07248  22279165.96548
  21199830.031 6 -10846684.332 6  -7397888.96848  21199822.89548
  20575242.609 7 -19754842.668 7 -15693922.55548  20575235.35548
  23451705.47711                    450827.51655  23451705.02355
  20474769.539 7 -21191971.845 7 -16541354.55349  20474762.28549
  22576645.297 6 -14420150.013 6  -8496032.79847  22576639.74247
  21098214.047 7 -18489107.348 7 -12094063.54448  21098205.62148
  20603169.953 7 -16198481.586 7 -16825251.57349  20603164.28149
 24 11 23  0  7  0.0000000  0  8G07G13G14G15G17G19G22G30            
  22290953.828 5 -15802587.011 5 -11483740.06748  22290948.74648
  21194625.422 7 -10874036.798 7  -7419202.54148  21194617.87548
  20576843.891 7 -19746429.852 7 -15687367.07948  20576836.40248
  23441512.055 1    400975.158 1    409094.35445  23441513.65245
  20466750.555 6 -21234109.995 6 -16574189.41449  20466743.41849
  22558203.523 6 -14517061.760 6  -8571548.28847  22558196.97347
  21096496.625 6 -18498132.026 6 -12101095.70748  21096488.31648
  20606776.234 7 -16179531.593 7 -16810485.35249  20606770.62149
 24 11 23  0  7 30.0000000  0  8G07G13G14G15G17G19G22G30            
  22302801.867 6 -15740332.647 6 -11435230.21648  22302794.90648
  21189532.477 7 -10900798.485 7  -7440055.76948  21189525.16448
  20578482.250 7 -19737818.291 7 -15680656.73948  20578474.58648
  23431422.039 1    347944.323 1    367771.74445  23431422.05545
  20458833.547 7 -21275720.250 7 -16606612.92949  20458825.53149
  22539807.367 6 -14613732.059 6  -8646875.63147  22539800.87547
  21094819.602 6 -18506941.321 6 -12107960.04948  21094811.93848
  20610458.938 7 -16160180.374 7 -16795406.47849  20610453.26649
 24 11 23  0  8  0.0000000  0  8G07G13G14G15G17G19G22G30            
  22314710.477 6 -15677748.830 6 -11386463.66148  22314704.92248
  21184552.016 7 -10926971.970 7  -7460450.66548  21184544.64548
  20580157.680 7 -19729012.425 7 -15673795.00248  20580150.25048
  23421432.398 1    295438.234 1    326858.03946  23421429.66046
  20451015.570 7 -21316805.942 7 -16638627.69749  20451007.55549
  22521457.734 6 -14710162.391 6  -8722016.01547  22521450.24647
  21093183.828 6 -18515539.920 6 -12114660.21648  21093175.81348
  20614217.063 7 -16140430.907 7 -16780017.27749  20614211.27349
 24 11 23  0  8 30.0000000  0  9G02G07G13G14G15G17G19G22G30         
  23599148.44512   -757540.12612                
  22326680.594 6 -15614844.429 6 -11337447.30948  22326674.51248
  21179681.922 7 -10952564.797 7  -7480393.09648  21179674.55148
  20581868.938 7 -19720021.419 7 -15666789.01048  20581861.56648
  23411539.148 1    243450.557 1    286348.23246  23411536.41046
  20443295.219 7 -21357374.603 7 -16670239.56649  20443287.78949
  22503152.656 6 -14806359.368 6  -8796974.54747  22503144.58247
  21091585.766 7 -18523937.498 7 -12121203.72848  21091577.22348
  20618049.766 7 -16120290.945 7 -16764323.81449  20618043.56649
 24 11 23  0  9  0.0000000  0  9G02G07G13G14G15G17G19G22G30         
  23599943.563 3   -753368.178 3                
  22338714.594 5 -15551598.595 5 -11288164.86248  22338709.51248
  21174925.867 7 -10977555.008 7  -7499865.96048  21174918.73048
  20583618.617 7 -19710824.935 7 -15659622.90948  20583611.24648
  23401748.984 2    192002.890 2    246259.21146  23401745.95346
  20435677.195 6 -21397404.427 6 -16701431.58649  20435670.23449
  22484895.945 6 -14902299.546 6  -8871732.96447  22484888.28147
  21090029.148 6 -18532114.010 6 -12127574.99648  21090021.25048
  20621960.094 7 -16099738.681 7 -16748309.07249  20621954.59849
 24 11 23  0  9 30.0000000  0  9G02G07G13G14G15G17G19G22G30         
  23600832.852 3   -748697.239 3                
  22350813.961 5 -15488023.896 5 -11238626.16648  22350807.82048
  21170283.125 6 -11001954.053 6  -7518878.17248  21170275.81348
  20585405.406 6 -19701435.924 6 -15652306.78848  20585398.15248
  23392057.328 1    141084.717 1    206582.89346  23392055.82046
  20428160.219 7 -21436907.041 7 -16732212.79049  20428152.78949
  22466686.133 6 -14997992.874 6  -8946299.01147  22466678.29347
  21088513.469 7 -18540082.594 7 -12133784.22148  21088504.98448
  20625947.461 7 -16078785.863 7 -16731982.21449  20625941.84849
 24 11 23  0 10  0.0000000  0  9G02G07G13G14G15G17G19G22G30         
  23601815.039 1   -743528.530 1                
  22362974.234 5 -15424122.560 5 -11188832.98348  22362968.21148
  21165751.961 6 -11025763.023 6  -7537430.58648  21165745.05948
  20587228.313 7 -19691857.069 7 -15644842.73248  20587221.11748
  23382468.61711                  -1060281.15856  23382467.10956
  20420743.703 7 -21475883.542 7 -16762584.02549  20420735.39549
  22448522.469 6 -15093439.330 6  -9020672.70447  22448516.09447
  21087035.844 7 -18547846.276 7 -12139833.79248  21087027.94548
  20630010.188 7 -16057433.657 7 -16715344.13149  20630005.16449
 24 11 23  0 10 30.0000000  0  8G07G13G14G15G17G19G22G30            
  22375201.391 6 -15359872.614 6 -11138768.15048  22375195.19148
  21161337.867 6 -11048958.732 6  -7555505.13048  21161330.73048
  20589091.297 7 -19682066.711 7 -15637213.86548  20589083.98448
  23372985.35911                  -1099114.39955  23372984.37955
  20413431.148 7 -21514310.969 7 -16792527.39749  20413422.72349
  22430409.875 5 -15188614.438 5  -9094834.93847  22430403.55947
  21085602.008 7 -18555383.582 7 -12145706.97848  21085593.05548
  20634153.609 7 -16035659.156 7 -16698376.99649  20634148.64549
 24 11 23  0 11  0.0000000  0  8G07G13G14G15G17G19G22G30            
  22387487.406 5 -15295304.114 5 -11088455.05648  22387482.02748
  21157035.367 7 -11071570.390 7  -7573124.55848  21157028.17248
  20590988.281 7 -19672095.434 7 -15629444.02948  20590981.20348
  23363601.29711  -1583872.11211  -1137539.01555  23363599.73055
  20406217.125 7 -21552218.935 7 -16822066.01749  20406209.63749
  22412345.430 6 -15283545.973 6  -9168807.38047  22412338.70347
  21084204.313 7 -18562725.846 7 -12151428.18948  21084196.12148
  20638372.180 7 -16013491.623 7 -16681103.60049  20638366.44949
 24 11 23  0 11 30.0000000  0  8G07G13G14G15G17G19G22G30            
  22399836.375 5 -15230409.453 5 -11037887.80748  22399831.11348
  21152845.516 6 -11093588.513 6  -7590281.50048  21152838.37948
  20592922.086 7 -19661935.598 7 -15621527.26548  20592915.12548
  23354321.695 2  -1632649.624 2  -1175547.31646  23354317.08246
  20399104.563 7 -21589597.986 7 -16851192.48949  20399096.31349
  22394328.805 5 -15378223.533 5  -9242581.92847  22394321.72747
  21082845.594 7 -18569865.667 7 -12156991.64248  21082837.34448
  20642667.414 7 -15990922.050 7 -16663516.91949  20642662.27349
 24 11 23  0 12  0.0000000  0  8G07G13G14G15G17G19G22G30            
  22412248.391 5 -15165186.294 5 -10987064.60348  22412242.95348
  21148768.977 7 -11115010.510 7  -7606973.92048  21148761.84048
  20594891.563 7 -19651585.444 7 -15613462.19148  20594884.48448
  23345141.773 1  -1680889.287 1  -1213136.57346  23345136.80946
  20392092.305 7 -21626445.149 7 -16879904.50749  20392084.34849
  22376360.492 5 -15472642.780 5  -9316155.18247  22376354.17647
  21081525.641 7 -18576801.580 7 -12162396.21948  21081517.56648
  20647039.125 7 -15967947.433 7 -16645614.62049  20647033.80549
 24 11 23  0 12 30.0000000  0  8G07G13G14G15G17G19G22G30            
  22424722.914 6 -15099633.840 6 -10935984.82748  22424716.94948
  21144806.914 7 -11135834.187 7  -7623200.12748  21144799.01648
  20596898.016 7 -19641044.541 7 -15605248.47448  20596890.29348
  23336062.664 1  -1728588.436 1  -1250304.62445  23336059.80945
  20385181.953 7 -21662759.052 7 -16908200.99649  20385173.99649
  22358443.766 6 -15566800.102 6  -9389524.34847  22358436.68847
  21080244.914 7 -18583533.502 7 -12167641.83748  21080236.54748
  20651488.555 7 -15944566.009 7 -16627395.33049  20651483.41449
 24 11 23  0 13  0.0000000  0  9G02G07G13G14G15G17G19G22G30         
  23609732.03111   -601973.16311                
  22437258.141 6 -15033763.971 6 -10884657.69048  22437251.12148
  21140955.094 6 -11156070.017 6  -7638968.26348  21140948.25048
  20598936.938 7 -19630324.899 7 -15596895.49148  20598929.97748
  23327089.086 1  -1775757.092 1  -1287059.38246  23327084.29746
  20378371.188 7 -21698550.303 7 -16936090.23049  20378363.64149
  22340574.602 6 -15660704.858 6  -9462696.69647  22340566.82047
  21078999.852 7 -18590073.710 7 -12172738.05948  21078991.83648
  20656013.211 7 -15920788.619 7 -16608867.48649  20656008.07049
 24 11 23  0 13 30.0000000  0  9G02G07G13G14G15G17G19G22G30         
  23611386.953 1   -593277.271 1                
  22449857.023 6 -14967556.087 6 -10833067.19948  22449849.82848
  21137220.578 7 -11175696.671 7  -7654261.74048  21137213.09048
  20601015.102 7 -19619406.219 7 -15588387.41448  20601008.08248
  23318216.961 1  -1822373.163 1  -1323383.49246  23318214.28146
  20371663.969 7 -21733797.382 7 -16963555.43349  20371656.36349
  22322757.250 6 -15754334.203 6  -9535654.43647  22322748.70747
  21077795.383 7 -18596402.218 7 -12177669.33348  21077787.42648
  20660617.344 7 -15896593.621 7 -16590014.24749  20660611.96549
 24 11 23  0 14  0.0000000  0  9G02G07G13G14G15G17G19G22G30         
  23613136.93811                                
  22462519.063 6 -14901009.084 6 -10781212.42548  22462514.03948
  21133602.336 7 -11194711.898 7  -7669078.75548  21133594.49648
  20603131.266 7 -19608287.551 7 -15579723.50948  20603123.54348
  23309450.414 1  -1868433.735 1  -1359274.76546  23309448.73046
  20365060.977 7 -21768498.061 7 -16990594.87449  20365053.07849
  22304993.156 6 -15847684.394 6  -9608394.66647  22304984.67247
  21076631.539 6 -18602518.610 6 -12182435.32448  21076622.99648
  20665301.500 7 -15871978.960 7 -16570833.99149  20665296.12149
 24 11 23  0 14 30.0000000  0  9G02G07G13G14G15G17G19G22G30         
  23614986.02311   -574365.38211                
  22475241.516 6 -14834153.281 6 -10729117.06348  22475236.49248
  21130094.656 7 -11213144.779 7  -7683442.01448  21130086.81648
  20605278.328 7 -19596999.616 7 -15570927.68548  20605271.36748
  23300786.898 1  -1913967.454 1  -1394755.49746  23300783.57446
  20358555.883 7 -21802682.096 7 -17017231.71849  20358547.69149
  22287275.953 5 -15940783.422 5  -9680939.18747  22287269.05147
  21075502.453 7 -18608454.032 7 -12187060.28548  21075493.50048
  20670059.719 7 -15846974.047 7 -16551349.64349  20670054.45749
 24 11 23  0 15  0.0000000  0  9G02G07G13G14G15G17G19G22G30         
  23616928.922 1   -564152.431 1                
  22488027.805 6 -14766962.854 6 -10676760.90348  22488022.36748
  21126703.102 7 -11230968.637 7  -7697330.70248  21126695.43848
  20607463.719 7 -19585516.599 7 -15561979.86648  20607456.58248
  23292227.273 1  -1958946.865 1  -1429804.22046  23292224.82846
  20352153.602 7 -21836322.590 7 -17043445.03149  20352145.82049
  22269613.172 5 -16033602.568 5  -9753265.62947  22269605.85947
  21074411.555 6 -18614183.086 6 -12191524.45348  21074404.06648
  20674896.914 7 -15821551.900 7 -16531540.17049  20674891.59449
 24 11 23  0 15 30.0000000  0  9G02G07G13G14G15G17G19G22G30         
  23618969.406 3   -553433.028 3                
  22500875.977 6 -14699445.705 6 -10624150.19848  22500870.30548
  21123425.469 7 -11248190.308 7  -7710750.15348  21123418.03948
  20609684.680 6 -19573846.770 6 -15552886.46648  20609677.60248
  23283772.367 1  -2003378.081 1  -1464425.92946  23283769.86346
  20345854.695 7 -21869426.384 7 -17069240.15449  20345846.21149
  22252002.789 6 -16126147.831 6  -9825378.66647  22251995.94547
  21073359.109 6 -18619714.051 6 -12195834.26248  21073351.21148
  20679812.648 7 -15795719.671 7 -16511411.16249  20679807.15249
 24 11 23  0 16  0.0000000  0  9G02G07G13G14G15G17G19G22G30         
  23621104.352 2   -542207.610 2                
  22513786.539 6 -14631603.528 6 -10571286.22448  22513780.80948
  21120262.703 7 -11264810.495 7  -7723700.91448  21120255.50848
  20611940.727 6 -19561991.898 6 -15543648.87948  20611933.12148
  23275421.484 1  -2047261.313 1  -1498620.57046  23275418.21946
  20339656.898 7 -21901994.262 7 -17094617.68049  20339649.17649
  22234444.180 6 -16218418.040 6  -9897277.36847  22234437.39547
  21072344.734 7 -18625049.297 7 -12199991.56548  21072335.89848
  20684806.531 7 -15769477.896 7 -16490963.02349  20684801.03549
 24 11 23  0 16 30.0000000  0  9G02G07G13G14G15G17G19G22G30         
  23623335.734 1   -530475.247 1                
  22526758.109 6 -14563435.377 6 -10518168.23948  22526753.02748
  21117215.070 7 -11280827.426 7  -7736181.61348  21117207.69948
  20614231.773 6 -19549951.293 6 -15534266.55848  20614224.22748
  23267176.922 2  -2090593.840 2  -1532386.05046  23267171.42646
  20333561.516 7 -21934024.781 7 -17119576.47249  20333553.67649
  22216938.969 6 -16310409.477 6  -9968958.86047  22216932.00847
  21071365.492 6 -18630188.432 6 -12203996.05548  21071357.82848
  20689878.930 6 -15742824.791 6 -16470194.36549  20689873.55149
 24 11 23  0 17  0.0000000  0  9G02G07G13G14G15G17G19G22G30         
  23625663.750 1   -518235.853 1                
  22539791.719 6 -14494941.779 6 -10464796.65348  22539786.98848
  21114281.891 6 -11296240.575 6  -7748191.83248  21114274.63748
  20616557.766 6 -19537725.671 6 -15524740.08248  20616551.27348
  23259034.055 2  -2133374.713 2  -1565721.66846  23259032.13746
  20327568.867 7 -21965517.764 7 -17144116.42249  20327560.79349
  22199486.219 6 -16402120.526 6 -10040421.86447  22199479.08247
  21070425.328 7 -18635132.476 7 -12207848.51548  21070417.13748
  20695028.234 7 -15715759.950 7 -16449104.88349  20695023.32849
 24 11 23  0 17 30.0000000  0  9G02G07G13G14G15G17G19G22G30         
  23628090.625 2   -505489.003 2                
  22552887.438 6 -14426123.213 6 -10411171.83148  22552882.47348
  21111463.734 6 -11311049.237 6  -7759731.01048  21111456.89148
  20618919.523 6 -19525315.535 6 -15515069.81848  20618912.68048
  23250998.125 1  -2175602.545 1  -1598626.37346  23250996.38346
  20321678.078 7 -21996472.624 7 -17168237.04549  20321670.00449
  22182087.313 5 -16493549.041 5 -10111664.74047  22182080.46947
  21069521.414 6 -18639882.368 6 -12211549.70748  21069512.81348
  20700257.469 6 -15688282.758 6 -16427694.07549  20700252.68049
 24 11 23  0 18  0.0000000  0  9G02G07G13G14G15G17G19G22G30         
  23630614.500 3   -492234.942 3                
  22566045.742 6 -14356981.186 6 -10357294.97948  22566039.66048
  21108760.000 6 -11325254.036 6  -7770799.64848  21108753.09848
  20621315.727 6 -19512722.425 6 -15505256.97448  20621308.64848
  23243067.133 1  -2217277.314 1  -1631100.14846  23243064.86346
  20315889.609 7 -22026889.890 7 -17191938.77649  20315881.59449
  22164743.680 6 -16584693.540 6 -10182686.29947  22164735.89847
  21068653.844 6 -18644440.318 6 -12215101.32348  21068645.88748
  20705564.227 6 -15660393.719 6 -16405962.36349  20705559.26249
 24 11 23  0 18 30.0000000  0  9G02G07G13G14G15G17G19G22G30         
  23633232.586 2   -478474.811 2                
  22579264.734 6 -14287516.813 6 -10303166.94848  22579258.06648
  21106171.883 6 -11338855.320 6  -7781398.00448  21106165.03948
  20623747.344 7 -19499947.707 7 -15495302.61848  20623739.62148
  23235242.805 2  -2258398.428 2  -1663142.54346  23235239.48046
  20310203.750 7 -22056769.844 7 -17215221.81149  20310195.73449
  22147453.836 6 -16675553.251 6 -10253485.95547  22147445.46947
  21067823.375 7 -18648807.715 7 -12218504.44348  21067814.71548
  20710950.047 7 -15632093.122 7 -16383909.94849  20710944.55149
 24 11 23  0 19  0.0000000  0  9G02G07G13G14G15G17G19G22G30         
  23635948.000 2   -464207.651 2                
  22592545.148 6 -14217730.425 6 -10248787.98648  22592537.83648
  21103699.195 7 -11351852.133 7  -7791525.36848  21103691.88348
  20626212.320 7 -19486991.447 7 -15485206.82148  20626205.18448
  23227525.664 4  -2298964.563 4  -1694752.37646  23227520.05146
  20304620.117 6 -22086111.761 6 -17238085.60149  20304612.04349
  22130217.875 6 -16766125.756 6 -10324061.81047  22130210.32847
  21067028.055 6 -18652984.886 6 -12221759.33648  21067019.57048
  20716414.125 6 -15603379.909 6 -16361536.01049  20716408.45349
 24 11 23  0 19 30.0000000  0  9G02G07G13G14G15G17G19G22G30         
  23638756.719 1   -449433.252 1                
  22605885.820 6 -14147621.728 6 -10194157.89348  22605879.15248
  21101340.016 7 -11364243.567 7  -7801181.01048  21101333.28948
  20628712.047 7 -19473853.926 7 -15474969.75448  20628705.14548
  23219911.789 4  -2338974.249 4  -1725928.63546  23219906.82446
  20299139.344 7 -22114915.053 7 -17260529.68049  20299130.97749
  22113038.508 6 -16856407.764 6 -10394411.30647  22113030.66847
  21066269.469 6 -18656972.944 6 -12224866.86548  21066260.92648
  20721956.945 6 -15574253.404 6 -16338840.03649  20721951.15649
 24 11 23  0 20  0.0000000  0  9G02G07G13G14G15G17G19G22G30         
  23641666.578 1   -434147.522 1                
  22619288.180 6 -14077187.571 6 -10139274.20448  22619282.56648
  21099098.406 7 -11376025.724 7  -7810361.87848  21099091.73848
  20631247.672 7 -19460531.888 7 -15464588.94148  20631239.89148
  23212401.391 1  -2378422.732 1  -1756667.64446  23212399.82446
  20293761.242 7 -22143175.559 7 -17282550.80549  20293752.87549
  22095914.250 6 -16946394.199 6 -10464530.47348  22095906.35248
  21065546.820 7 -18660768.739 7 -12227824.58248  21065538.21948
  20727578.961 7 -15544709.316 7 -16315818.67149  20727572.99649
 24 11 23  0 20 30.0000000  0  9G02G07G13G14G15G17G19G22G30         
  23644671.383 2   -418353.783 2                
  22632751.898 5 -14006431.713 5 -10084139.81748  22632747.10948
  21096972.047 7 -11387201.037 7  -7819069.87948  21096965.37948
  20633817.039 7 -19447029.010 7 -15454067.19348  20633809.90248
  23205001.641 2  -2417311.921 2  -1786970.89546  23204999.54746
  20288486.367 7 -22170896.081 7 -17304151.14949  20288477.70749
  22078846.500 6 -17036085.910 6 -10534420.01548  22078838.60248
  21064860.055 7 -18664376.300 7 -12230635.62648  21064851.86348
  20733279.906 7 -15514750.321 7 -16292474.00649  20733274.11749
 24 11 23  0 21  0.0000000  0  9G02G07G13G14G15G17G19G22G30         
  23647774.516 2   -402051.861 2                
  22646277.367 5 -13935355.368 5 -10028755.70348  22646272.93048
  21094961.453 7 -11397769.768 7  -7827305.22848  21094954.02348
  20636421.109 7 -19433346.203 7 -15443405.23948  20636413.62148
  23197708.086 3  -2455641.233 3  -1816837.85746  23197705.87546
  20283313.906 7 -22198076.705 7 -17325330.80249  20283305.53949
  22061835.453 6 -17125481.317 6 -10604078.65948  22061826.96948
  21064208.992 7 -18667796.924 7 -12233301.00348  21064200.80148
  20739059.836 7 -15484376.374 7 -16268805.99649  20739054.39849
 24 11 23  0 21 30.0000000  0  9G02G07G13G14G15G17G19G22G30         
  23650973.164 4   -385243.087 4                
  22659863.828 6 -13863959.972 6  -9973122.99148  22659858.92248
  21093065.656 7 -11407733.113 7  -7835068.83948  21093058.28548
  20639058.273 7 -19419485.192 7 -15432604.44048  20639051.02048
  23190521.734 3  -2493410.891 3  -1846268.65546  23190518.05946
  20278244.258 7 -22224718.556 7 -17346090.63149  20278236.18449
  22044880.320 6 -17214579.602 6 -10673505.80248  22044872.07048
  21063593.805 7 -18671032.992 7 -12235822.55848  21063585.14548
  20744918.688 7 -15453588.282 7 -16244815.28049  20744912.89849
 24 11 23  0 22  0.0000000  0  9G02G07G13G14G15G17G19G22G30         
  23654267.680 4   -367927.301 4  -1213768.13656  23654260.95356
  22673511.383 6 -13792245.409 6  -9917241.53848  22673505.94548
  21091284.680 7 -11417089.874 7  -7842359.79448  21091277.48448
  20641730.250 7 -19405446.171 7 -15421664.93248  20641722.76248
  23183441.188 4  -2530619.705 4  -1875262.40746  23183438.27346
  20273276.680 7 -22250821.241 7 -17366430.33249  20273268.66449
  22027982.203 6 -17303378.507 6 -10742699.65848  22027974.36348
  21063012.648 7 -18674085.110 7 -12238200.77648  21063003.87148
  20750855.984 7 -15422385.251 7 -16220501.22949  20750851.13749
 24 11 23  0 22 30.0000000  0  9G02G07G13G14G15G17G19G22G30         
  23657658.898 2   -350103.425 2  -1199879.32045  23657653.81645
  22687218.977 6 -13720211.739 6  -9861111.45748  22687212.89548
  21089619.773 7 -11425839.347 7  -7849177.54048  21089612.63748
  20644435.602 7 -19391228.944 7 -15410586.55448  20644427.87948
  23176466.688 3  -2567265.851 3  -1903817.73446  23176464.65246
  20268411.859 7 -22276383.692 7 -17386349.07349  20268404.19549
  22011142.586 6 -17391875.182 6 -10811657.98748  22011133.86748
  21062466.813 6 -18676953.009 6 -12240435.43948  21062458.62148
  20756872.875 6 -15390766.151 6 -16195862.97549  20756867.55549
 24 11 23  0 23  0.0000000  0  9G02G07G13G14G15G17G19G22G30         
  23661145.180 1   -331770.576 1                
  22700987.602 6 -13647858.732 6  -9804732.54348  22700981.05148
  21088070.688 7 -11433980.300 7  -7855521.10948  21088063.43448
  20647175.414 7 -19376833.064 7 -15399368.97548  20647167.51648
  23169600.320 3  -2603347.364 3  -1931933.16746  23169598.63746
  20263651.094 7 -22301404.545 7 -17405845.78949  20263642.78549
  21994359.164 6 -17480066.720 6 -10880378.54147  21994351.26647
  21061955.516 7 -18679637.013 7 -12242526.82848  21061947.32448
  20762969.516 6 -15358729.659 6 -16170899.48749  20762964.02049
 24 11 23  0 23 30.0000000  0  9G02G07G13G14G15G17G19G22G30         
  23664732.578 2   -312929.286 2                
  22714815.867 6 -13575187.724 6  -9748105.85948  22714810.02048
  21086637.250 7 -11441513.363 7  -7861390.99848  21086629.82048
  20649948.078 7 -19362259.668 7 -15388013.07948  20649940.70748
  23162843.258 4  -2638863.951 4  -1959608.38747  23162839.46547
  20258992.398 7 -22325884.969 7 -17424921.39249  20258984.61749
  21977635.055 6 -17567951.710 6 -10948860.24348  21977627.03948
  21061480.164 7 -18682138.545 7 -12244476.02048  21061471.32848
  20769145.367 7 -15326276.066 7 -16145610.98249  20769139.52049
 24 11 23  0 24  0.0000000  0  9G02G07G13G14G15G17G19G22G30         
  23668415.617 3   -293580.054 3                
  22728705.375 6 -13502199.408 6  -9691231.91247  22728699.46947
  21085319.438 7 -11448438.504 7  -7866787.18648  21085311.59848
  20652755.219 7 -19347509.394 7 -15376519.34548  20652747.61348
  23156191.828 4  -2673815.203 4  -1986843.03647  23156188.38747
  20254437.266 7 -22349824.471 7 -17443575.49449  20254429.19149
  21960969.875 6 -17655528.232 6 -11017101.57748  21960961.80148
  21061037.625 7 -18684458.806 7 -12246283.97348  21061030.37148
  20775400.164 7 -15293405.105 7 -16119997.24949  20775394.37549
 24 11 23  0 24 30.0000000  0  9G02G07G13G14G15G17G19G22G30         
  23672195.680 4   -273723.351 4                
  22742654.789 5 -13428895.172 5  -9634111.80048  22742648.88348
  21084117.250 7 -11454755.752 7  -7871709.67948  21084109.35248
  20655595.648 7 -19332583.327 7 -15364888.63548  20655587.98448
  23149648.484 4  -2708200.652 4  -2013636.79147  23149644.86747
  20249984.133 7 -22373223.799 7 -17461808.68549  20249976.00049
  21944362.992 6 -17742795.236 6 -11085101.73548  21944355.32848
  21060630.609 7 -18686599.214 7 -12247951.80148  21060622.41848
  20781734.617 7 -15260117.068 7 -16094058.53149  20781729.06349
 24 11 23  0 25  0.0000000  0  9G02G07G13G14G15G17G19G22G30         
  23676069.703 4   -253358.497 4                
  22756664.672 6 -13355274.432 6  -9576745.04448  22756658.06348
  21083030.828 7 -11460464.094 7  -7876157.71148  21083022.81348
  20658469.117 7 -19317480.987 7 -15353120.56948  20658462.03948
  23143212.969 4  -2742018.499 4  -2039988.27246  23143208.64846
  20245634.250 7 -22396081.881 7 -17479620.12249  20245626.41049
  21927816.781 6 -17829749.447 6 -11152858.16648  21927808.70748
  21060257.992 7 -18688559.731 7 -12249479.45248  21060249.09848
  20788149.008 7 -15226410.578 7 -16067793.74349  20788143.57049
 24 11 23  0 25 30.0000000  0  9G02G07G13G14G15G17G19G22G30         
  23680041.398 4   -232485.432 4  -1114541.54855  23680035.08255
  22770733.914 6 -13281337.556 6  -9519131.97148  22770727.24648
  21082060.648 7 -11465563.566 7  -7880131.29148  21082052.98448
  20661376.539 7 -19302202.824 7 -15341215.50348  20661369.05148
  23136884.883 3  -2775268.371 3  -2065897.12447  23136881.61747
  20241387.672 7 -22418398.527 7 -17497009.66949  20241379.65649
  21911329.602 6 -17916388.788 6 -11220369.23748  21911321.58648
  21059918.578 7 -18690341.077 7 -12250867.47548  21059910.27048
  20794642.602 7 -15192285.367 7 -16041202.68249  20794637.52049
 24 11 23  0 26  0.0000000  0  9G02G07G13G14G15G17G19G22G30         
  23684109.133 3   -211104.016 3  -1097880.70545  23684104.28545
  22784863.711 6 -13207085.398 6  -9461273.19548  22784858.03948
  21081206.188 7 -11470054.210 7  -7883630.46348  21081197.87948
  20664317.148 7 -19286749.234 7 -15329173.74048  20664309.77748
  23130667.500 4  -2807948.562 4  -2091362.13247  23130663.76647
  20237244.516 7 -22440173.101 7 -17513976.82149  20237235.79749
  21894902.953 6 -18002711.105 6 -11287633.28148  21894895.11348
  21059614.164 7 -18691944.094 7 -12252116.55548  21059605.32848
  20801216.367 7 -15157741.002 7 -16014285.00349  20801211.22749
 24 11 23  0 26 30.0000000  0  9G02G07G13G14G15G17G19G22G30         
  23688274.977 3   -189215.990 3  -1080825.02045  23688269.59845
  22799052.961 5 -13132520.025 5  -9403170.37848  22799047.87948
  21080466.984 7 -11473937.291 7  -7886656.22048  21080458.96948
  20667290.648 7 -19271122.297 7 -15316996.89848  20667283.45348
  23124555.906 4  -2840060.114 4  -2116384.05647  23124553.16847
  20233203.320 7 -22461408.016 7 -17530523.46449  20233195.01249
  21878536.695 6 -18088716.289 6 -11354650.20948  21878528.62148
  21059342.039 6 -18693370.681 6 -12253228.16148  21059334.14148
  20807869.523 7 -15122778.814 7 -15987041.76049  20807864.55949
 24 11 23  0 27  0.0000000  0  9G02G07G13G14G15G17G19G22G30         
  23692537.094 1   -166821.237 1  -1063374.43745  23692531.95345
  22813302.055 5 -13057641.777 5  -9344823.75248  22813296.67648
  21079843.492 7 -11477212.356 7  -7889208.18748  21079836.12148
  20670297.484 7 -19255321.885 7 -15304684.86548  20670290.23048
  23118554.039 4  -2871602.117 4  -2140962.13347  23118550.07047
  20229265.523 7 -22482102.536 7 -17546649.01649  20229257.03949
  21862230.852 6 -18174402.171 6 -11421418.30947  21862222.42647
  21059104.180 6 -18694622.256 6 -12254203.41248  21059096.04748
  20814601.672 7 -15087397.948 7 -15959472.26749  20814596.82449
 24 11 23  0 27 30.0000000  0  9G02G07G13G14G15G17G19G22G30         
  23696893.477 1   -143918.809 1  -1045528.32445  23696890.91445
  22827610.641 5 -12982450.310 5  -9286233.08448  22827605.20348
  21079335.688 6 -11479878.297 6  -7891285.51648  21079329.07848
  20673337.250 7 -19239347.408 7 -15292237.21548  20673330.05548
  23112660.234 5  -2902572.427 5  -2165094.77047  23112656.61747
  20225430.320 7 -22502255.662 7 -17562352.70349  20225421.83649
  21845986.484 6 -18259765.347 6 -11487934.95848  21845978.41048
  21058899.492 7 -18695698.206 7 -12255041.80448  21058891.06648
  20821415.234 7 -15051597.037 7 -15931575.45949  20821409.27049
 24 11 23  0 28  0.0000000  0  9G02G07G13G14G15G17G19G22G30         
  23701348.586 2   -120508.397 2  -1027286.27845  23701345.61345
  22841978.891 5 -12906945.617 5  -9227398.29948  22841973.39548
  21078944.742 7 -11481934.735 7  -7892887.90448  21078937.25448
  20676410.266 7 -19223198.971 7 -15279654.00348  20676403.42248
  23106873.836 3  -2932970.104 3  -2188781.17646  23106871.39146
  20221698.664 7 -22521866.366 7 -17577633.72249  20221689.94549
  21829804.188 6 -18344803.140 6 -11554198.07548  21829796.17248
  21058728.117 7 -18696598.691 7 -12255743.45748  21058719.51648
  20828307.828 7 -15015375.556 7 -15903350.94049  20828301.98049
 24 11 23  0 28 30.0000000  0  9G02G07G13G14G15G17G19G22G30         
  23705900.883 2    -96592.268 2  -1008650.17445  23705895.80145
  22856405.758 5 -12831130.426 5  -9168321.56648  22856400.02748
  21078668.992 7 -11483383.479 7  -7894016.77348  21078662.03148
  20679515.805 7 -19206878.906 7 -15266937.06148  20679508.66848
  23101199.172 4  -2962796.599 4  -2212022.53747  23101195.61347
  20218069.117 7 -22540937.510 7 -17592494.30949  20218060.86749
  21813683.859 6 -18429516.302 6 -11620208.25648  21813676.48848
  21058589.016 7 -18697326.776 7 -12256310.78448  21058581.11748
  20835279.859 7 -14978735.119 7 -15874799.94949  20835275.07049
 24 11 23  0 29  0.0000000  0  9G02G07G13G14G15G17G19G22G30         
  23710546.953 2    -72170.891 2   -989620.30445  23710542.16445
  22870891.469 5 -12755005.792 5  -9109003.72448  22870886.38748
  21078509.172 7 -11484224.781 7  -7894672.31048  21078501.74248
  20682654.211 7 -19190387.647 7 -15254086.69748  20682646.72348
  23095632.336 4  -2992050.995 4  -2234818.07747  23095628.13347
  20214542.328 7 -22559469.149 7 -17606934.50149  20214534.31349
  21797626.117 6 -18513902.682 6 -11685963.77648  21797618.51248
  21058483.508 7 -18697883.359 7 -12256744.47448  21058474.67248
  20842332.086 7 -14941675.462 7 -15845922.29449  20842326.82449
 24 11 23  0 29 30.0000000  0  9G02G07G13G14G15G17G19G22G30         
  23715291.297 3    -47244.650 3   -970197.27745  23715284.92245
  22885436.852 6 -12678572.878 6  -9049445.66848  22885431.35548
  21078464.008 7 -11484459.487 7  -7894855.18148  21078456.93048
  20685824.852 7 -19173726.352 7 -15241103.83548  20685817.83248
  23090175.719 4  -3020733.620 4  -2257168.07747  23090170.45747
  20211118.586 7 -22577461.625 7 -17620954.57849  20211110.21949
  21781630.313 6 -18597960.942 6 -11751463.63148  21781622.00448
  21058410.164 7 -18698269.983 7 -12257045.71248  21058401.62148
  20849464.633 7 -14904197.163 7 -15816718.43549  20849458.66849
 24 11 23  0 30  0.0000000  0  9G02G07G13G14G15G17G19G22G30         
  23720130.188 2    -21812.911 2                
  22900040.266 6 -12601831.120 6  -8989646.97148  22900034.88748
  21078535.234 7 -11484086.368 7  -7894564.42248  21078527.80548
  20689027.438 7 -19156893.974 7 -15227987.66648  20689020.53548
  23084826.266 4  -3048842.327 4  -2279070.89147  23084821.77047
  20207797.508 7 -22594914.324 7 -17634554.04449  20207789.37549
  21765697.078 6 -18681687.881 6 -11816705.30048  21765688.82848
  21058368.781 7 -18698486.051 7 -12257214.05148  21058360.18048
  20856676.258 7 -14866298.476 7 -15787187.00349  20856670.46949
 24 11 23  0 30 30.0000000  0  9G02G07G13G14G15G17G19G22G30         
  23725064.773 1      4124.154 1                
  22914703.000 6 -12524781.226 6  -8929608.16448  22914697.73848
  21078721.805 7 -11483105.543 7  -7893800.11748  21078714.37548
  20692263.391 7 -19139890.974 7 -15214738.55748  20692255.90248
  23079585.977 3  -3076376.541 3  -2300526.05847  23079582.41847
  20204578.734 7 -22611827.160 7 -17647732.83549  20204570.89549
  21749827.680 6 -18765081.575 6 -11881687.29448  21749819.78148
  21058360.359 7 -18698532.147 7 -12257249.94448  21058351.40648
  20863967.789 7 -14827979.306 7 -15757327.92749  20863962.35249
 24 11 23  0 31  0.0000000  0  9G02G07G13G14G15G17G19G22G30         
  23730098.063 2     30566.940 2                
  22929423.844 5 -12447423.244 5  -8869329.31248  22929416.76648
  21079024.375 7 -11481516.553 7  -7892561.91448  21079017.06348
  20695531.477 7 -19122717.017 7 -15201356.21148  20695523.69548
  23074455.047 2  -3103335.076 2  -2321532.61347  23074452.01647
  20201463.914 7 -22628199.319 7 -17660490.31949  20201455.48849
  21734023.008 6 -18848139.564 6 -11946407.70348  21734013.76248
  21058383.344 7 -18698408.730 7 -12257153.73748  21058375.03548
  20871340.055 7 -14789238.739 7 -15727140.48249  20871334.38349
 24 11 23  0 31 30.0000000  0  9G02G07G13G14G15G17G19G22G30         
  23735224.773 1     57514.195 1                
  22944201.773 5 -12369758.641 5  -8808811.51248  22944198.03948
  21079442.383 6 -11479320.218 6  -7890850.45648  21079435.01248
  20698831.922 7 -19105373.371 7 -15187841.62748  20698824.19948
  23069434.688 4  -3129718.206 4  -2342090.81447  23069431.48047
  20198450.844 7 -22644031.942 7 -17672827.39049  20198442.24249
  21718281.406 6 -18930860.833 6 -12010865.72348  21718272.27748
  21058439.320 7 -18698117.304 7 -12256926.60548  21058430.30948
  20878792.445 7 -14750077.434 7 -15696625.19049  20878787.00849
 24 11 23  0 32  0.0000000  0  8G07G13G14G15G17G19G22G30            
  22959042.344 5 -12291782.786 5  -8748051.16748  22959035.26648
  21079976.930 7 -11476511.526 7  -7888661.84748  21079969.26648
  20702165.023 6 -19087855.032 6 -15174190.93648  20702158.41448
  23064524.219 4  -3155520.102 4  -2362196.09547  23064520.77747
  20195541.133 7 -22659319.986 7 -17684740.10449  20195533.05949
  21702605.930 6 -19013238.145 6 -12075055.72248  21702596.09848
  21058527.133 7 -18697653.334 7 -12256565.02348  21058518.53148
  20886325.125 7 -14710489.893 7 -15665777.76049  20886320.27749
 24 11 23  0 32 30.0000000  0  8G07G13G14G15G17G19G22G30            
  22973935.906 5 -12213509.137 5  -8687058.75448  22973930.76648
  21080625.500 7 -11473103.155 7  -7886005.95248  21080617.66048
  20705529.938 6 -19070174.774 6 -15160414.07948  20705522.15648
  23059723.523 4  -3180752.516 4  -2381857.62147  23059719.32047
  20192732.633 7 -22674076.185 7 -17696238.39149  20192725.02749
  21686993.125 6 -19095282.002 6 -12138985.90248  21686983.70348
  21058645.641 7 -18697030.167 7 -12256079.38848  21058637.03948
  20893937.031 7 -14670488.390 7 -15634607.76249  20893932.24249
 24 11 23  0 33  0.0000000  0  8G07G13G14G15G17G19G22G30            
  22988888.797 5 -12134930.498 5  -8625828.69247  22988883.41847
  21081390.008 7 -11469087.012 7  -7882876.48548  21081381.93448
  20708926.164 7 -19052324.768 7 -15146504.94048  20708918.50048
  23055030.891 3  -3205406.886 3  -2401068.72447  23055027.85947
  20190027.703 7 -22688292.340 7 -17707315.86849  20190019.51249
  21671445.086 6 -19176981.986 6 -12202648.12148  21671436.83648
  21058796.313 7 -18696240.073 7 -12255463.67748  21058787.65248
  20901629.523 7 -14630064.487 7 -15603108.60649  20901624.26249
 24 11 23  0 33 30.0000000  0  8G07G13G14G15G17G19G22G30            
  23003898.422 4 -12056047.593 4  -8564361.53747  23003894.51247
  21082269.281 7 -11464463.833 7  -7879274.00948  21082261.55948
  20712354.938 6 -19034305.910 6 -15132464.23648  20712347.50848
  23050448.742 3  -3229483.306 3  -2419829.50947  23050446.12147
  20187425.578 7 -22701969.225 7 -17717973.13249  20187417.15249
  21655963.594 6 -19258337.149 6 -12266041.65448  21655955.75448
  21058977.703 7 -18695284.540 7 -12254719.04648  21058969.21948
  20909402.719 7 -14589218.650 7 -15571280.70249  20909397.34049
 24 11 23  0 34  0.0000000  0  8G07G13G14G15G17G19G22G30            
  23018968.164 5 -11976862.350 5  -8502658.79247  23018962.37547
  21083264.227 7 -11459235.181 7  -7875199.71648  21083256.68048
  20715816.258 6 -19016119.335 6 -15118292.84048  20715808.65248
  23045977.203 3  -3252982.346 3  -2438140.36347  23045974.05547
  20184925.195 7 -22715107.917 7 -17728211.02849  20184917.23849
  21640547.766 6 -19339346.307 6 -12329165.57348  21640540.10248
  21059190.414 6 -18694165.166 6 -12253846.75848  21059182.34048
  20917255.805 7 -14547951.592 7 -15539124.56049  20917249.84049
 24 11 23  0 34 30.0000000  0  8G07G13G14G15G17G19G22G30            
  23034093.211 5 -11897378.414 5  -8440723.30747  23034086.36747
  21084374.281 7 -11453404.070 7  -7870655.98748  21084366.44148
  20719307.852 7 -18997768.313 7 -15103993.30948  20719300.65648
  23041614.648 4  -3275906.325 4  -2456003.11847  23041611.32447
  20182527.141 7 -22727711.846 7 -17738032.21249  20182518.59849
  21625198.305 6 -19420010.682 6 -12392020.83348  21625190.58248
  21059434.586 6 -18692885.657 6 -12252849.67548  21059425.63348
  20925188.406 7 -14506266.103 7 -15506642.36449  20925182.50049
 24 11 23  0 35  0.0000000  0  8G07G13G14G15G17G19G22G30            
  23049277.609 5 -11817592.804 5  -8378552.82647  23049269.88747
  21085598.992 7 -11446967.242 7  -7865640.25948  21085591.44548
  20722831.555 7 -18979249.320 7 -15089562.88848  20722824.59448
  23037362.398 4  -3298251.115 4  -2473414.52347  23037359.19147
  20180230.703 7 -22739777.659 7 -17747434.10049  20180222.68849
  21609915.688 6 -19500324.535 6 -12454602.94348  21609906.50048
  21059708.984 7 -18691442.856 7 -12251725.35548  21059700.20748
  20933200.719 7 -14464158.249 7 -15473831.05349  20933195.63749
 24 11 23  0 35 30.0000000  0  9G02G07G13G14G15G17G19G22G30         
  23779692.94511    233034.23311                
  23064515.695 5 -11737510.362 5  -8316151.02147  23064510.37547
  21086938.070 7 -11439929.074 7  -7860155.95748  21086930.75848
  20726387.930 7 -18960566.760 7 -15075005.01048  20726379.56348
  23033220.750 4  -3320020.206 4  -2490377.37647  23033216.43047
  20178034.953 7 -22751309.351 7 -17756419.78449  20178027.40649
  21594697.938 6 -19580290.295 6 -12516913.80248  21594689.51248
  21060013.039 7 -18689841.704 7 -12250477.65548  21060005.19948
  20941293.789 7 -14421631.973 7 -15440693.71049  20941287.88349
 24 11 23  0 36  0.0000000  0  9G02G07G13G14G15G17G19G22G30         
  23785681.711 3    264497.028 3                
  23079811.570 4 -11657129.904 4  -8253516.96347  23079806.48847
  21088392.102 7 -11432287.403 7  -7854201.39048  21088385.14148
  20729974.008 7 -18941718.630 7 -15060318.12548  20729966.69548
  23029188.086 4  -3341210.970 4  -2506889.57147  23029184.05947
  20175943.352 7 -22762305.607 7 -17764988.23949  20175934.57449
  21579547.734 6 -19659903.430 6 -12578949.90448  21579539.07448
  21060348.211 7 -18688080.763 7 -12249105.45648  21060339.78548
  20949466.086 7 -14378684.998 7 -15407228.54849  20949460.59049
 24 11 23  0 36 30.0000000  0  9G02G07G13G14G15G17G19G22G30         
  23791764.273 3    296459.396 3                
  23095164.688 5 -11576451.710 5  -8190650.87547  23095159.66447
  21089961.336 7 -11424042.277 7  -7847776.61048  21089953.55548
  20733591.570 7 -18922704.705 7 -15045502.06548  20733584.60948
  23025265.539 5  -3361822.942 5  -2522950.79447  23025262.03947
  20173953.430 7 -22772765.813 7 -17773139.00049  20173944.71149
  21564465.305 6 -19739161.785 6 -12640709.57048  21564456.58648
  21060713.898 7 -18686160.230 7 -12247608.89548  21060704.88748
  20957719.055 7 -14335316.658 7 -15373435.03949  20957713.20749
 24 11 23  0 37  0.0000000  0  9G02G07G13G14G15G17G19G22G30         
  23797941.430 3    328920.891 3                
  23110573.102 5 -11495476.353 5  -8127553.23447  23110568.19547
  21091645.297 7 -11415194.180 7  -7840881.97348  21091637.16448
  20737241.914 7 -18903525.250 7 -15030557.00748  20737234.36748
  23021453.359 5  -3381855.498 5  -2538560.48347  23021450.21147
  20172064.266 7 -22782690.251 7 -17780872.27949  20172055.95749
  21549450.680 6 -19818063.618 6 -12702191.40248  21549442.54748
  21061109.922 7 -18684080.343 7 -12245988.16048  21061100.79348
  20966051.391 7 -14291526.920 7 -15339313.16549  20966045.71949
 24 11 23  0 37 30.0000000  0  9G02G07G13G14G15G17G19G22G30         
  23804212.672 2    361881.848 2                
  23126038.508 5 -11414203.621 5  -8064223.84547  23126033.60247
  21093443.336 6 -11405742.594 6  -7833517.09548  21093435.84848
  20740922.797 6 -18884179.415 6 -15015482.30248  20740915.48448
  23017752.164 5  -3401307.401 5  -2553717.74247  23017748.84047
  20170277.938 7 -22792078.107 7 -17788187.43549  20170269.80549
  21534505.250 6 -19896605.954 6 -12763393.12248  21534496.23848
  21061535.664 7 -18681840.931 7 -12244243.12248  21061527.53148
  20974465.266 7 -14247314.616 7 -15304862.03549  20974459.30149
 24 11 23  0 38  0.0000000  0  9G02G07G13G14G15G17G19G22G30         
  23810580.172 2    395340.114 2   -728481.42755  23810571.62955
  23141560.094 5 -11332635.914 5  -8000664.66347  23141555.42247
  21095356.008 7 -11395689.452 7  -7825683.46848  21095348.87148
  20744635.539 6 -18864669.145 6 -15000279.46848  20744628.57848
  23014160.672 5  -3420179.802 5  -2568423.40747  23014156.93847
  20168593.070 7 -22800931.723 7 -17795086.30549  20168584.46949
  21519627.008 6 -19974788.794 6 -12824314.72248  21519618.40648
  21061991.984 7 -18679444.315 7 -12242375.60048  21061983.38348
  20982958.680 7 -14202681.337 7 -15270082.86249  20982953.30149
 24 11 23  0 38 30.0000000  0  9G02G07G13G14G15G17G19G22G30         
  23817040.898 3    429294.294 3   -702023.50945  23817033.17645
  23157138.977 5 -11250775.602 5  -7936877.44647  23157133.24647
  21097384.063 7 -11385036.338 7  -7817382.34548  21097375.98848
  20748379.141 6 -18844995.704 6 -14984949.48648  20748371.71148
  23010679.367 5  -3438474.041 5  -2582678.54547  23010675.51647
  20167009.500 7 -22809253.035 7 -17801570.41549  20167000.84049
  21504818.055 6 -20052611.285 6 -12884955.52948  21504808.86748
  21062477.523 7 -18676892.414 7 -12240387.05148  21062468.51248
  20991532.094 7 -14157628.188 7 -15234976.51849  20991526.42249
 24 11 23  0 39  0.0000000  0 10G02G06G07G13G14G15G17G19G22G30      
  23823596.570 2    463743.238 2   -675180.03345  23823589.84445
  25088211.16411                                
  23172771.039 5 -11168623.718 5  -7872863.04947  23172766.19147
  21099524.883 7 -11373784.324 7  -7808614.54348  21099517.51248
  20752154.094 6 -18825159.732 6 -14969492.86048  20752146.72348
  23007308.133 5  -3456190.058 5  -2596483.15247  23007304.10547
  20165527.711 7 -22817042.423 7 -17807640.00949  20165518.58249
  21490077.555 6 -20130072.111 6 -12945314.51148  21490068.77748
  21062992.305 6 -18674186.143 6 -12238278.24348  21062984.23048
  21000184.938 7 -14112155.455 7 -15199543.21349  21000179.50049
 24 11 23  0 39 30.0000000  0 10G02G06G07G13G14G15G17G19G22G30      
  23830247.164 2    498688.004 2                
  25069277.14111                    206167.43255  25069279.55955
  23188459.695 5 -11086179.312 5  -7808620.68947  23188454.96547
  21101780.016 6 -11361932.288 6  -7799379.19148  21101772.93848
  20755960.195 6 -18805159.822 6 -14953908.48848  20755952.70748
  23004047.578 5  -3473325.852 5  -2609835.67447  23004043.08247
  20164146.414 7 -22824298.642 7 -17813294.15949  20164138.10549
  21475407.180 6 -20207167.798 6 -13005388.96148  21475397.64148
  21063536.883 7 -18671324.698 7 -12236048.51148  21063528.39848
  21008918.563 7 -14066261.568 7 -15163781.74549  21008912.94949
 24 11 23  0 40  0.0000000  0 10G02G06G07G13G14G15G17G19G22G30      
  23836988.031 2    534120.613 2   -642429.42755  23836979.48855
  25050314.66411    131605.07911    128523.15955  25050318.60555
  23204202.547 5 -11003450.849 5  -7744156.98447  23204197.40647
  21104147.922 7 -11349488.316 7  -7789682.58448  21104140.66848
  20759795.633 6 -18785003.666 6 -14938202.36548  20759788.26248
  23000895.555 5  -3489888.939 5  -2622741.91848  23000891.76248
  20162865.164 7 -22831029.959 7 -17818539.30749  20162857.14849
  21460803.742 6 -20283904.021 6 -13065183.32248  21460794.78948
  21064109.633 7 -18668316.192 7 -12233704.18748  21064100.44548
  21017731.055 7 -14019953.881 7 -15127697.85049  21017725.03149
 24 11 23  0 40 30.0000000  0 10G02G06G07G13G14G15G17G19G22G30      
  23843827.602 2    570059.899 2   -614424.73045  23843820.11345
  25031328.99211                     50775.14255  25031331.46955
  23220002.945 5 -10920419.437 5  -7679457.22147  23219998.03947
  21106631.914 6 -11336433.300 6  -7779509.81548  21106625.12948
  20763664.438 6 -18764671.605 6 -14922359.18548  20763657.12548
  22997855.773 5  -3505859.157 5  -2635186.14448  22997852.15648
  20161687.641 7 -22837216.934 7 -17823360.27849  20161679.50849
  21446274.141 6 -20360259.226 6 -13124680.78748  21446264.71948
  21064713.484 7 -18665141.222 7 -12231230.14748  21064704.59048
  21026625.922 7 -13973212.652 7 -15091276.13249  21026619.72349
 24 11 23  0 41  0.0000000  0 10G02G06G07G13G14G15G17G19G22G30      
  23850757.648 3    606479.568 3   -586045.69445  23850751.03945
  25012313.39811    -68105.84911    -27094.69255  25012313.59055
  23235856.078 5 -10837111.867 5  -7614542.27247  23235850.87547
  21109228.180 6 -11322793.623 6  -7768881.49948  21109220.63348
  20767562.156 6 -18744189.857 6 -14906399.35748  20767554.60948
  22994924.703 5  -3521262.251 5  -2647188.46448  22994921.73048
  20160609.266 7 -22842885.664 7 -17827777.42149  20160600.66449
  21431811.703 6 -20436257.561 6 -13183900.16648  21431803.16048
  21065344.461 7 -18661826.632 7 -12228647.32248  21065335.50848
  21035596.867 7 -13926063.925 7 -15054536.88449  21035590.90249
 24 11 23  0 41 30.0000000  0 10G02G06G07G13G14G15G17G19G22G30      
  23857782.133 3    643397.463 3   -557278.46045  23857776.16845
  24993270.53911   -168174.50611   -105069.78956  24993271.43456
  23251765.117 4 -10753510.683 4  -7549398.55147  23251760.38747
  21111938.453 7 -11308551.279 7  -7757783.54948  21111930.61348
  20771491.844 6 -18723539.992 6 -14890308.53148  20771483.94548
  22992104.586 5  -3536079.884 5  -2658734.58748  22992101.84848
  20159632.273 7 -22848018.359 7 -17831776.89149  20159624.02349
  21417421.172 6 -20511878.701 6 -13242825.64148  21417412.86348
  21066005.047 7 -18658354.190 7 -12225941.47848  21065996.27048
  21044648.789 6 -13878489.119 6 -15017465.62649  21044644.70349
 24 11 23  0 42  0.0000000  0 10G02G06G07G13G14G15G17G19G22G30      
  23864901.563 4    680807.012 4   -528128.11745  23864894.66045
  24974199.313 1   -268381.125 1   -183152.36246  24974203.25446
  23267728.094 4 -10669622.411 4  -7484031.12247  23267723.83247
  21114762.008 6 -11293712.793 6  -7746221.09848  21114754.34448
  20775451.656 6 -18702727.890 6 -14874091.27448  20775444.75448
  22989395.742 5  -3550317.789 5  -2669829.01548  22989392.53548
  20158756.234 7 -22852621.521 7 -17835363.72749  20158748.16049
  21403102.281 6 -20587126.737 6 -13301460.37348  21403093.68048
  21066694.789 7 -18654730.430 7 -12223117.71648  21066685.77748
  21053783.367 6 -13830493.944 6 -14980066.79749  21053778.57849
 24 11 23  0 42 30.0000000  0 10G02G06G07G13G14G15G17G19G22G30      
  23872113.680 4    718706.161 4   -498596.17445  23872105.95745
  24955104.781 1   -368724.406 1   -261341.51746  24955107.02346
  23283745.352 3 -10585449.406 3  -7418441.79247  23283741.32447
  21117698.211 6 -11278280.487 6  -7734195.91448  21117691.25048
  20779443.016 6 -18681755.110 6 -14857748.83148  20779435.46948
  22986795.906 5  -3563977.097 5  -2680472.57247  22986792.58247
  20157980.656 7 -22856697.251 7 -17838539.57249  20157972.64149
  21388854.086 6 -20662001.485 6 -13359804.23548  21388845.13348
  21067412.211 7 -18650957.245 7 -12220177.53448  21067403.78548
  21062996.234 6 -13782079.911 6 -14942341.58749  21062990.85549
 24 11 23  0 43  0.0000000  0 10G02G06G07G13G14G15G17G19G22G30      
  23879420.055 4    757101.217 4   -468677.90145  23879411.92245
  24935985.18011                   -339629.69655  24935987.18855
  23299818.422 4 -10500985.804 4  -7352626.02547  23299813.21947
  21120749.531 6 -11262247.695 6  -7721702.82548  21120742.04348
  20783465.891 6 -18660614.995 6 -14841275.97048  20783458.57848
  22984309.320 5  -3577050.657 5  -2690659.69348  22984304.23848
  20157307.117 7 -22860238.794 7 -17841299.16849  20157298.39849
  21374678.742 6 -20736494.391 6 -13417850.54748  21374669.32048
  21068160.141 7 -18647028.310 7 -12217115.99648  21068151.36348
  21072289.969 6 -13733240.227 6 -14904284.69349  21072284.23849
