     2.11           OBSERVATION DATA    M (MIXED)           RINEX VERSION / TYPE
teqc  2019Feb25                         20241124 01:19:22UTCPGM / RUN BY / DATE
OSX ker:10.11.6|Core i5|gcc 4.3 -m64|OSX ker:10.10+|=+      COMMENT
ssrcrin-13.7.0x                         23-NOV-24 18:02     COMMENT
(000000000000583293750002) Septentrio proprietary           COMMENT
CAR1                                                        MARKER NAME
Unknown                                                     MARKER NUMBER
Unknown             Unknown                                 OBSERVER / AGENCY
3234315             SEPT POLARX5        5.4.0               REC # / TYPE / VERS
Unknown             Unknown                                 ANT # / TYPE
 -2455406.0740 -4767117.2987  3441919.0652                  APPROX POSITION XYZ
        0.0000        0.0000        0.0000                  ANTENNA: DELTA H/E/N
     1     1                                                WAVELENGTH FACT L1/2
    14    C1    L1    L2    P2    P1    C2    C5    L5    C6# / TYPES OF OBSERV
          L6    C7    L7    C8    L8                        # / TYPES OF OBSERV
    30.0000                                                 INTERVAL
For GPS, L2 corresponds to the L2P carrier phase.           COMMENT
For GLONASS, L2 corresponds to the L2CA carrier phase.      COMMENT
Forced Modulo Decimation to 30 seconds                      COMMENT
  2024    11    23    18     3    0.0000000     GPS         TIME OF FIRST OBS
    18                                                      LEAP SECONDS
                                                            END OF HEADER
 24 11 23 18  3  0.0000000  0 24G02G03G04G31S31S35G09E29E30G26R10G16
                                G06E02E07E08E26E27S33R07R08R09R11G07
  24766688.223 6 130149821.993 6 101415488.544 2  24766698.139 2  24766688.022 2


  20132379.417 8 105796367.467 8  82438756.956 8  20132386.343 8  20132379.203 8
  20132386.904 7  20132380.218 5  79003785.104 5

  21231996.569 7 111574896.038 7  86941504.149 5  21232002.869 5  21231996.109 5
  21232003.266 7

  22521999.020 7 118353899.016 7  92223846.468 6  22522005.516 6  22521998.470 6
  22522006.199 6

  37076510.095 7 194838383.328 7


  37126353.872 7 195100309.387 7


  22967677.327 7 120695959.914 7  94048838.406 6  22967687.137 6  22967676.818 6
  22967687.697 6

  25887872.064 7 136041687.438 7

  25887878.840 7 104239759.504 7
  24973747.551 7 131237929.392 7
                                                  24973747.122 5 106524289.115 5
  24973754.354 7 100558959.781 7
  21729513.833 7 114189365.101 7  88978763.197 7  21729523.048 7  21729513.140 7
  21729522.980 7

  19739889.325 7 105224720.726 7


  21410985.354 7 112515486.762 7  87674429.085 5  21410990.349 5  21410984.465 5


  24910346.027 5 130904755.112 5 102003755.907 4  24910359.177 4  24910345.965 4
  24910359.866 5

  26938524.355 6 141562899.855 6

  26938535.023 6 108470315.546 6
  23970421.340 8 125965414.625 8
                  23970424.721 5  94065094.795 5  23970420.624 6 102244650.310 6
  23970427.917 8  96518980.439 8
  26354784.597 6 138495327.882 6

  26354792.719 6 106119828.974 6
  26007389.657 6 136669753.213 6

  26007396.792 6 104721010.787 6
  26148587.383 6 137411755.690 6

  26148597.154 7 105289566.184 7
  37209026.943 7 195534761.266 7


  19949370.588 8 106790540.827 8  83059357.399 7
  19949381.828 7

  21537380.280 6 115331688.237 6  89702478.777 6
  21537391.965 6

  19904448.399 8 106288640.887 8  82668988.015 8
  19904459.153 8

  23352116.714 6 124786634.811 6  97056345.442 5
  23352133.012 5

  24206554.848 6 127206305.493 6  99121836.942 4  24206564.717 4  24206554.513 4
  24206564.546 5

 24 11 23 18  3 30.0000000  0 24G02G03G04G31S31S35G09E29E30G26R10G16
                                G06E02E07E08E26E27S33R07R08R09R11G07
  24781711.666 5 130228767.773 5 101477004.425 2  24781720.854 2  24781711.421 2


  20134915.251 8 105809693.036 8  82449140.493 8  20134921.851 8  20134915.037 8
  20134922.806 7  20134916.229 5  79013736.003 5

  21224690.236 7 111536499.849 7  86911585.030 5  21224696.174 5  21224689.780 5
  21224696.412 7

  22539413.949 7 118445414.837 7  92295157.359 6  22539420.616 6  22539413.404 6
  22539421.099 6

  37076670.451 7 194839213.998 7


  37126499.848 7 195101073.299 7


  22954305.616 6 120625691.798 6  93994084.130 6  22954314.883 6  22954305.089 6
  22954314.929 6

  25879144.802 6 135995826.574 6

  25879151.736 7 104204619.406 7
  24968804.547 7 131211954.093 7
                                                  24968804.145 5 106503205.329 5
  24968811.271 7 100539056.704 7
  21735994.077 7 114223419.385 7  89005298.923 7  21736003.653 7  21735993.362 7
  21736004.033 7

  19728808.734 7 105165655.428 7


  21401410.516 7 112465172.067 7  87635222.915 5  21401415.894 5  21401409.609 5


  24904722.172 5 130875205.820 5 101980730.495 4  24904736.343 4  24904722.061 4
  24904737.104 5

  26947886.935 6 141612100.268 6

  26947897.602 6 108508014.395 6
  23970394.716 8 125965274.007 8
                  23970398.081 5  94064989.767 5  23970393.943 6 102244536.180 6
  23970401.142 8  96518872.683 8
  26363173.068 6 138539409.559 6

  26363181.463 6 106153605.720 6
  26019335.352 6 136732527.348 6

  26019342.401 7 104769110.354 7
  26132565.482 6 137327560.841 6

  26132575.301 7 105225053.393 7
  37209183.878 7 195535589.910 7


  19947609.434 8 106781117.378 8  83052028.071 7
  19947621.801 7

  21522287.644 6 115250871.765 6  89639621.539 6
  21522300.700 6

  19914027.881 8 106339794.554 8  82708774.185 8
  19914038.334 8

  23327805.710 6 124656733.274 6  96955311.167 5
  23327825.262 5

  24192603.016 6 127132989.842 6  99064708.077 4  24192612.990 4  24192602.288 4
  24192613.317 5

 24 11 23 18  4  0.0000000  0 24G02G03G04G31S31S35G09E29E30G26R10G16
                                G06E02E07E08E26E27S33R07R08R09R11G07
  24796548.186 6 130306733.254 6 101537756.412 1  24796557.433 1  24796547.815 1


  20137387.760 8 105822685.871 8  82459264.753 8  20137394.650 8  20137387.546 8
  20137395.256 7  20137388.543 5  79023438.412 5

  21217235.374 7 111497324.545 7  86881058.812 5  21217241.447 5  21217234.914 5
  21217241.774 7

  22556681.666 7 118536156.272 7  92365864.828 6  22556688.225 6  22556681.134 6
  22556688.576 6

  37076652.319 7 194839136.349 7


  37126472.168 7 195100929.528 7


  22940767.896 6 120554548.714 6  93938648.050 5  22940775.932 5  22940767.396 5
  22940776.562 5

  25870245.489 7 135949059.636 7

  25870252.425 7 104168785.041 7
  24963764.670 7 131185469.389 7
                                                  24963764.180 5 106481708.045 5
  24963771.485 7 100518763.285 7
  21742413.385 7 114257152.871 7  89031584.677 7  21742422.860 7  21742412.666 7
  21742422.829 7

  19717690.754 7 105106388.699 7


  21391768.832 7 112414504.546 7  87595741.822 5  21391774.611 5  21391767.911 5


  24899022.366 5 130845252.105 5 101957389.931 3  24899035.669 3  24899022.344 3
  24899037.136 5

  26957142.053 6 141660736.084 6

  26957152.830 6 108545280.632 6
  23970208.513 8 125964295.554 8
                  23970211.500 4  94064259.105 4  23970207.446 6 102243741.956 6
  23970214.922 8  96518122.939 8
  26371400.156 6 138582640.625 6

  26371408.281 6 106186730.751 6
  26031154.515 7 136794635.925 7

  26031161.483 7 104816699.942 7
  26116393.287 6 137242574.646 6

  26116402.747 7 105159934.216 7
  37209170.325 7 195535509.451 7


  19945744.708 8 106771132.371 8  83044261.964 7
  19945756.371 7

  21507035.329 6 115169193.170 6  89576093.803 6
  21507046.549 6

  19923561.989 8 106390705.367 8  82748371.482 8
  19923572.211 8

  23303355.981 6 124526067.107 6  96853682.191 5
  23303370.970 5

  24178517.420 6 127058968.338 6  99007029.191 4  24178526.735 4  24178516.651 4
  24178527.940 5

 24 11 23 18  4 30.0000000  0 28G02G03G04G31S31S35G09E29E30R06G26R10
                                G16G06E02E13E07E08E26E27S33R07R08E33
                                R23R09R11G07
  24811374.083 6 130384640.026 6 101598462.669 1  24811382.718 1  24811373.583 1


  20139972.784 8 105836270.255 8  82469849.950 8  20139979.664 8  20139972.565 8
  20139980.187 7  20139973.117 5  79033582.557 5

  21209808.306 7 111458294.763 7  86850645.994 5  21209814.690 5  21209807.846 5
  21209814.640 7

  22573977.110 7 118627045.227 7  92436687.254 6  22573983.790 6  22573976.578 6
  22573984.374 6

  37076639.673 7 194839073.146 7


  37126447.445 7 195100800.353 7


  22927238.529 6 120483455.136 6  93883250.565 5  22927246.989 5  22927238.011 5
  22927247.237 6

  25861349.337 7 135902310.580 7

  25861356.416 7 104132964.385 7
  24958803.766 7 131159400.159 7
                                                  24958803.212 5 106460547.971 5
  24958810.487 7 100498788.218 7
  22096672.029 5 117912077.930 5


  21748947.120 7 114291488.418 7  89058339.561 7  21748956.710 7  21748946.401 7
  21748957.278 7

  19706711.000 7 105047860.216 7


  21382236.110 7 112364410.714 7  87556707.749 5  21382241.979 5  21382235.180 5


  24893420.723 5 130815818.478 5 101934454.663 3  24893434.394 3  24893420.679 3
  24893436.061 5

  26966465.497 6 141709730.115 6

  26966476.402 6 108582821.329 6
  27942828.010 6 146840551.876 6

  27942844.100 5 112514253.856 5
  23970038.615 8 125963403.645 8
                  23970041.732 5  94063593.069 5  23970037.720 6 102243018.005 6
  23970045.226 8  96517439.506 8
  26379640.352 6 138625945.574 6

  26379648.926 6 106219912.342 6
  26043022.291 7 136857000.892 7

  26043029.322 7 104864485.970 7
  26100246.348 6 137157723.057 6

  26100256.061 7 105094918.164 7
  37209159.946 7 195535444.906 7


  19943951.030 8 106761529.173 8  83036792.826 7
  19943962.311 7

  21491797.095 7 115087596.338 7  89512629.612 6
  21491810.373 6

  26680970.641 6 140209446.589 6

  26680977.994 6 107433241.451 6
  23737842.541 5 126981464.592 5


  19933225.548 8 106442309.498 8  82788508.036 8
  19933236.033 8

  23278935.667 6 124395579.349 6  96752191.951 5
  23278952.607 5

  24164472.624 6 126985165.382 6  98949520.587 4  24164482.335 4  24164471.851 4
  24164483.843 5

 24 11 23 18  5  0.0000000  0 28G02G03G04G31S31S35G09E29E30R06G26R10
                                G16G06E02E13E07E08E26E27S33R07R08E33
                                R23R09R11G07
  24826186.149 5 130462479.180 5 101659116.275 2  24826195.357 2  24826185.532 2


  20142669.147 8 105850439.804 8  82480891.118 8  20142675.931 8  20142668.928 8
  20142676.493 7  20142670.105 5  79044163.670 5

  21202407.565 7 111419404.697 7  86820342.042 5  21202414.061 5  21202407.109 5
  21202413.888 7

  22591299.150 7 118718072.976 7  92507617.835 6  22591305.801 6  22591298.632 6
  22591306.438 6

  37076630.305 7 194839019.183 7


  37126424.380 7 195100680.008 7


  22913718.376 6 120412405.131 6  93827887.025 5  22913726.886 5  22913717.876 5
  22913727.785 6

  25852455.342 7 135855572.908 7

  25852462.194 7 104097152.447 7
  24953920.790 7 131133740.791 7
                                                  24953920.806 5 106439720.581 5
  24953927.688 7 100479127.172 7
  22109555.605 5 117980833.525 5


  21755594.600 7 114326418.418 7  89085557.656 7  21755603.791 7  21755593.881 7
  21755603.821 7

  19695869.119 7 104990064.753 7


  21372811.980 7 112314886.569 7  87518117.578 5  21372817.413 5  21372811.041 5


  24887916.606 5 130786899.049 5 101911920.045 3  24887931.016 3  24887916.419 3
  24887932.435 5

  26975855.607 6 141759074.614 6

  26975866.457 6 108620630.550 6
  27959210.988 5 146926643.298 5

  27959227.251 5 112580219.725 5
  23969884.363 8 125962592.165 8
                  23969887.587 5  94062987.060 5  23969883.739 6 102242359.307 6
  23969890.847 8  96516817.704 8
  26387893.957 6 138669318.350 6

  26387902.517 6 106253145.921 6
  26054937.386 7 136919613.720 7

  26054944.257 7 104912461.945 7
  26084124.191 6 137073001.556 6

  26084134.106 7 105030001.794 7
  37209147.287 7 195535388.360 7


  19942227.861 8 106752303.374 8  83029617.204 7
  19942238.984 7

  21476574.816 7 115006076.839 7  89449225.622 6
  21476586.410 6

  26681040.751 6 140209813.360 6

  26681048.166 6 107433522.449 6
  23751340.240 5 127053648.861 5


  19943017.129 8 106494597.424 8  82829176.428 8
  19943027.963 8

  23254547.618 6 124265267.073 6  96650838.078 5
  23254567.287 5

  24150469.250 6 126911575.073 6  98892177.677 4  24150478.769 4  24150468.414 4
  24150480.688 5

 24 11 23 18  5 30.0000000  0 29G02G03G04G31S31S35G09E29E30R06G26R10
                                G16G06E02E13R22E07E08E26E27S33R07R08
                                E33R23R09R11G07
  24840984.925 6 130540248.492 6 101719715.434 2  24840994.616 2  24840984.134 2


  20145477.070 8 105865195.155 8  82492388.754 8  20145483.985 8  20145476.851 8
  20145484.440 7  20145477.553 5  79055182.222 5

  21195034.026 7 111380655.400 7  86790147.779 5  21195040.016 5  21195033.566 5
  21195040.292 7

  22608647.399 7 118809237.714 7  92578655.163 6  22608654.091 6  22608646.890 6
  22608654.836 6

  37076618.956 7 194838973.018 7


  37126402.693 7 195100568.560 7


  22900206.855 6 120341399.664 6  93772558.188 5  22900215.391 5  22900206.355 5
  22900215.418 6

  25843563.718 7 135808847.004 7

  25843570.652 7 104061349.535 7
  24949116.081 7 131108492.504 7
                                                  24949116.340 5 106419226.880 5
  24949123.024 7 100459781.115 7
  22122507.677 5 118049939.779 5


  21762354.404 7 114361942.099 7  89113238.351 7  21762363.672 7  21762353.680 7
  21762364.082 7

  19685164.207 7 104933005.461 7


  21363496.769 7 112265934.944 7  87479973.523 5  21363501.874 5  21363495.813 5


  24882512.819 5 130758494.663 5 101889786.765 3  24882525.633 3  24882512.587 3
  24882526.929 5

  26985312.325 6 141808768.716 6

  26985323.236 6 108658707.642 6
  27975574.517 5 147012634.787 5

  27975591.193 5 112646109.006 5
  24573842.645 5 131176857.052 5


  23969745.369 8 125961861.892 8
                  23969748.656 5  94062441.729 5  23969744.581 6 102241766.517 6
  23969751.946 8  96516258.125 8
  26396160.813 6 138712759.802 6

  26396169.315 6 106286432.145 6
  26066899.059 6 136982472.814 6

  26066906.185 7 104960626.593 7
  26068027.308 6 136988412.513 6

  26068037.287 7 104965186.896 7
  37209138.545 7 195535340.759 7


  19940575.050 8 106743457.527 8  83022737.125 7
  19940586.533 7

  21461366.802 7 114924636.969 7  89385883.574 6
  21461377.879 6

  26681193.039 6 140210612.897 6

  26681200.330 6 107434135.064 6
  23764906.525 5 127126233.421 5


  19952936.280 8 106547566.534 8  82870374.627 8
  19952947.437 8

  23230195.234 6 124135134.353 6  96549623.801 5
  23230214.530 5

  24136505.788 6 126838198.225 6  98835001.078 4  24136515.716 4  24136505.024 4
  24136515.818 5

 24 11 23 18  6  0.0000000  0 29G02G03G04G31S31S35G09E29E30R06G26R10
                                G16G06E02E13R22E07E08E26E27S33R07R08
                                E33R23R09R11G07
  24855769.864 5 130617943.564 5 101780256.699 1  24855779.844 1  24855769.051 1


  20148396.085 8 105880534.987 8  82504341.825 8  20148402.891 8  20148395.866 8
  20148403.410 7  20148397.287 5  79066637.261 5

  21187686.663 7 111342046.106 7  86760062.613 5  21187692.965 5  21187686.207 5
  21187693.252 7

  22626020.970 7 118900535.901 7  92649796.484 6  22626027.820 6  22626020.456 6
  22626028.342 6

  37076613.398 7 194838936.085 7


  37126383.706 7 195100465.240 7


  22886702.379 6 120270437.720 6  93717263.254 5  22886711.811 5  22886701.847 5
  22886712.350 6

  25834673.998 7 135762131.418 7

  25834680.995 7 104025554.546 7
  24944389.607 7 131083654.703 7
                                                  24944389.441 5 106399066.327 5
  24944396.613 7 100440749.563 7
  22135523.973 5 118119395.255 5


  21769226.827 7 114398056.811 7  89141379.591 7  21769236.145 7  21769226.108 7
  21769236.481 7

  19674598.792 7 104876682.124 7


  21354290.488 7 112217556.600 7  87442276.173 5  21354295.765 5  21354289.527 5


  24877205.795 5 130730604.404 5 101868054.112 3  24877217.795 3  24877205.527 3
  24877219.324 5

  26994834.855 6 141858809.724 6

  26994845.806 6 108697050.537 6
  27991918.484 5 147098523.047 5

  27991935.526 5 112711919.173 5
  24592206.947 5 131274859.668 5 102102730.060 4
  24592227.230 4

  23969621.670 8 125961211.771 8
                  23969625.034 5  94061956.179 5  23969620.633 6 102241238.791 6
  23969628.366 8  96515759.953 8
  26404440.507 6 138756268.950 6

  26404449.078 6 106319770.215 6
  26078907.146 6 137045574.634 6

  26078914.207 7 105008977.226 7
  26051955.723 6 136903956.425 6

  26051965.737 7 104900473.863 7
  37209131.784 7 195535300.878 7


  19938994.114 8 106734992.167 8  83016152.978 7
  19939005.178 7

  21446171.390 7 114843277.352 7  89322603.921 6
  21446184.918 6

  26681427.068 6 140211843.404 6

  26681434.885 6 107435077.895 6
  23778548.761 5 127199212.700 5


  19962982.574 8 106601212.630 8  82912099.364 8
  19962993.757 8

  23205878.397 6 124005182.876 6  96448550.460 5
  23205895.061 5

  24122583.199 6 126765033.837 6  98777990.041 4  24122593.002 4  24122582.582 4
  24122593.485 5

 24 11 23 18  6 30.0000000  0 30G02G21G03G04G31S31S35G09E29E30R06G26
                                R10G16G06E02E13R22E07E08E26E27S33R07
                                R08E33R23R09R11G07
  24870539.068 5 130695557.317 5 101840734.660 1  24870549.399 1  24870538.232 1


  25677966.078 5


  20151425.564 8 105896454.397 8  82516746.518 8  20151432.173 8  20151425.350 8
  20151432.914 7  20151426.381 5  79078525.084 5

  21180365.626 7 111303572.477 7  86730083.161 5  21180371.801 5  21180365.166 5
  21180371.679 7

  22643418.593 7 118991960.368 7  92721036.202 6  22643425.629 6  22643418.079 6
  22643425.913 6

  37076603.274 7 194838900.801 7


  37126364.304 7 195100364.554 7


  22873206.428 6 120199514.888 6  93661998.774 5  22873215.546 5  22873205.892 5
  22873215.637 6

  25825785.170 7 135715421.106 7

  25825792.144 7 103989763.589 7
  24939740.507 7 131059223.166 7
                                                  24939740.346 5 106379235.545 5
  24939747.438 7 100422029.306 7
  22148603.441 5 118189194.683 5


  21776210.459 7 114434756.312 7  89169976.515 7  21776219.903 7  21776209.744 7
  21776220.299 7

  19664170.059 7 104821091.891 7


  21345193.126 7 112169749.082 7  87405023.617 5  21345198.285 5  21345192.156 5


  24871994.765 6 130703223.653 6 101846718.452 4  24872007.443 4  24871994.546 4
  24872009.254 5

  27004422.383 6 141909191.315 6

  27004433.334 6 108735654.394 6
  28008241.625 5 147184301.216 5

  28008258.970 5 112777645.034 5
  24610549.315 5 131372763.153 5 102178876.697 4
  24610568.816 4

  23969512.356 8 125960637.193 8
                  23969515.702 5  94061527.097 5  23969511.649 6 102240772.393 6
  23969518.997 8  96515319.657 8
  26412732.185 6 138799841.257 6

  26412740.286 6 106353156.694 6
  26090959.835 6 137108912.156 6

  26090967.152 7 105057508.476 7
  26035909.114 6 136819630.240 6

  26035918.697 7 104835860.375 7
  37209128.757 7 195535263.168 7


  19937482.887 8 106726904.405 8  83009862.502 7
  19937494.238 7

  21430993.961 7 114761995.194 7  89259384.524 6
  21431005.455 6

  26681742.314 6 140213499.503 6

  26681749.869 6 107436346.858 6
  23792263.832 5 127272577.274 5


  19973154.396 8 106655527.704 8  82954344.410 8
  19973165.360 8

  23181592.907 6 123875411.390 6  96347617.078 5
  23181610.685 5

  24108700.171 6 126692077.592 6  98721141.199 4  24108709.777 4  24108699.621 4
  24108710.303 5

 24 11 23 18  7  0.0000000  0 29G02G03G04G31S31S35G09E29E30R06G26R10
                                G16G06E02E13R22E07E08E26E27S33R07R08
                                E33R23R09R11G07
  24885293.833 5 130773092.075 5 101901151.021 1  24885303.566 1  24885292.975 1


  20154566.039 8 105912958.623 8  82529606.909 8  20154572.961 8  20154565.820 8
  20154573.686 7  20154567.560 5  79090849.585 5

  21173071.276 7 111265240.370 7  86700213.981 5  21173077.217 5  21173070.816 5
  21173077.550 7

  22660840.931 7 119083514.018 7  92792376.570 6  22660847.876 6  22660840.408 6
  22660848.347 6

  37076600.846 7 194838872.804 7


  37126347.276 7 195100271.687 7


  22859718.828 6 120128636.858 6  93606769.218 6  22859728.010 6  22859718.296 6
  22859728.716 6

  25816898.475 6 135668721.198 6

  25816905.601 7 103953980.596 7
  24935169.745 7 131035203.822 7
                                                  24935169.775 5 106359739.312 5
  24935176.625 7 100403624.874 7
  22161749.238 5 118259343.414 5


  21783306.397 7 114472044.487 7  89199032.140 7  21783315.572 7  21783305.687 7
  21783315.629 7

  19653879.783 7 104766241.789 7


  21336205.382 7 112122519.779 7  87368221.620 5  21336211.003 5  21336204.403 5


  24866881.937 5 130676358.096 5 101825784.259 4  24866894.652 4  24866881.759 4
  24866895.201 5

  27014075.276 6 141959917.316 6

  27014086.288 6 108774522.128 6
  28024545.274 5 147269972.575 5

  28024562.114 5 112843289.099 5
  24628871.220 5 131470568.534 5
  24628887.903 4

  23969418.500 8 125960143.659 8
                  23969421.645 5  94061158.470 5  23969417.752 6 102240371.774 6
  23969424.981 8  96514941.455 8
  26421036.842 6 138843482.317 6

  26421045.179 6 106386595.847 6
  26103058.129 6 137172488.452 6

  26103065.461 7 105106222.682 7
  26019888.112 6 136735441.050 6

  26019898.019 7 104771351.840 7
  37209119.943 7 195535233.514 7


  19936043.402 8 106719201.109 8  83003871.054 7
  19936054.967 7

  21415830.714 7 114680797.780 7  89196231.051 6
  21415843.368 6

  26682139.176 6 140215586.014 6

  26682146.961 6 107437945.574 6
  23806050.020 5 127346328.411 5


  19983452.138 8 106710513.727 8  82997111.298 8
  19983462.509 8

  23157342.857 6 123745828.503 6  96246830.496 6
  23157361.764 6

  24094856.744 6 126619334.750 6  98664458.657 4  24094866.885 4  24094856.208 4
  24094866.886 5

 24 11 23 18  7 30.0000000  0 29G02G03G04G31S31S35G09E29E30R06G26R10
                                G16G06E02E13R22E07E08E26E27S33R07R08
                                E33R23R09R11G07
  24900032.616 5 130850546.442 5 101961504.699 1  24900042.736 1  24900031.847 1


  20157818.304 8 105930048.866 8  82542923.937 8  20157825.100 8  20157818.085 8
  20157825.838 7  20157819.207 5  79103611.736 5

  21165804.122 7 111227051.635 7  86670456.521 5  21165810.267 5  21165803.657 5
  21165810.290 7

  22678287.334 7 119175195.766 7  92863816.760 6  22678294.309 6  22678286.811 6
  22678294.813 6

  37076600.417 7 194838854.274 7


  37126331.053 7 195100187.356 7


  22846239.233 6 120057805.298 6  93551575.850 6  22846249.395 6  22846238.679 6
  22846249.728 6

  25808013.842 7 135622032.854 7

  25808020.941 7 103918206.472 7
  24930677.855 7 131011598.614 7
                                                  24930678.080 5 106340579.225 5
  24930684.811 7 100385537.749 7
  22174961.319 5 118329842.197 5


  21790514.031 7 114509921.244 7  89228546.410 7  21790523.456 7  21790513.325 7
  21790523.869 7

  19643729.427 7 104712134.656 7


  21327328.821 7 112075872.198 7  87331872.911 5  21327334.327 5  21327327.838 5


  24861868.146 6 130650009.259 6 101805252.663 4  24861880.041 4  24861867.968 4
  24861881.647 5

  27023793.799 6 142010987.586 6

  27023804.964 6 108813653.624 6
  28040826.987 5 147355536.526 5

  28040844.010 5 112908850.796 5
  24647175.235 5 131568273.418 5
  24647191.922 4

  23969340.187 8 125959732.753 8
                  23969343.403 5  94060851.603 5  23969339.508 6 102240038.202 6
  23969346.795 8  96514626.561 8
  26429354.747 6 138887193.732 6

  26429363.569 6 106420088.890 6
  26115201.322 6 137236302.612 6

  26115209.081 7 105155119.142 7
  26003893.936 6 136651391.930 6

  26003903.721 7 104706950.649 7
  37209113.616 7 195535212.297 7


  19934677.615 8 106711885.623 8  82998181.250 7
  19934688.722 7

  21400684.070 7 114599688.590 7  89133146.162 6
  21400695.968 6

  26682618.232 6 140218103.660 6

  26682626.242 6 107439874.668 6
  23819910.846 5 127420462.801 5


  19993874.034 8 106766168.974 8  83040398.681 8
  19993884.933 8

  23133129.612 6 123616439.044 6  96146194.307 6
  23133148.028 6

  24081055.365 6 126546806.960 6  98607943.691 4  24081065.079 4  24081054.802 4
  24081065.316 5

 24 11 23 18  8  0.0000000  0 29G02G03G04G31S31S35G09E29E30R06G26R10
                                G16G06E02E13R22E07E08E26E27S33R07R08
                                E33R23R09R11G07
  24914754.991 5 130927910.569 5 102021788.158 1  24914765.124 1  24914754.196 1


  20161180.707 8 105947717.866 8  82556691.942 8  20161187.466 8  20161180.488 8
  20161188.458 7  20161181.474 5  79116806.059 5

  21158563.060 7 111188999.659 7  86640805.630 5  21158569.364 5  21158562.595 5
  21158569.440 7

  22695756.416 7 119266996.332 7  92935349.520 6  22695763.593 6  22695755.902 6
  22695764.038 6

  37076592.440 7 194838836.834 7


  37126315.125 7 195100105.035 7


  22832768.306 6 119987013.447 6  93496413.420 6  22832778.543 6  22832767.739 6
  22832778.661 6

  25799130.144 7 135575348.745 7

  25799137.219 7 103882435.586 7
  24926263.592 7 130988400.990 7
                                                  24926263.750 5 106321749.955 5
  24926270.522 7 100367762.920 7
  22188237.007 5 118400683.642 5


  21797832.347 7 114548377.957 7  89258512.599 7  21797841.548 7  21797831.632 7
  21797841.900 7

  19633717.282 7 104658765.210 7


  21318561.761 7 112029801.446 7  87295973.662 5  21318567.125 5  21318560.773 5


  24856951.195 6 130624170.182 6 101785118.331 4  24856964.301 4  24856950.994 4
  24856964.884 5

  27033576.379 6 142062393.562 6

  27033587.516 6 108853042.372 6
  28057088.083 5 147440983.853 5

  28057104.992 5 112974323.173 5
  24665455.640 4
  24665469.817 4

  23969276.521 8 125959397.565 8
                  23969279.830 5  94060601.262 5  23969275.658 6 102239766.097 6
  23969283.029 8  96514369.679 8
  26437684.901 6 138930968.625 6

  26437693.971 6 106453630.578 6
  26127388.379 6 137300345.291 6

  26127396.241 7 105204190.702 7
  25987925.828 6 136567477.567 6

  25987935.438 7 104642652.711 7
  37209113.808 7 195535193.217 7


  19933381.916 8 106704952.476 8  82992788.797 7
  19933393.387 7

  21385552.881 7 114518662.472 7  89070125.914 7
  21385564.900 7

  26683177.946 6 140221044.757 6

  26683186.152 6 107442128.215 6
  23833839.180 5 127494968.871 5


  20004419.811 8 106822482.922 8  83084198.389 8
  20004430.666 8

  23108951.424 6 123487238.539 6  96045705.164 6
  23108968.928 6

  24067293.076 6 126474487.264 6  98551590.856 4  24067302.691 4  24067292.473 4
  24067302.570 5

 24 11 23 18  8 30.0000000  0 29G02G03G04G31S31S35G09E29E30R06G26R10
                                G16G06E02E13R22E07E08E26E27S33R07R08
                                E33R23R09R11G07
  24929460.947 5 131005189.699 5 102082005.312 1  24929471.209 1  24929459.821 1


  20164654.566 8 105965973.028 8  82570916.689 8  20164661.532 8  20164654.347 8
  20164661.927 7  20164655.432 5  79130438.082 5

  21151349.613 7 111151092.523 7  86611267.613 6  21151355.961 6  21151349.148 6
  21151355.778 7

  22713248.956 7 119358920.754 7  93006978.811 6  22713256.245 6  22713248.442 6
  22713256.525 6

  37076593.799 7 194838828.470 7


  37126302.037 7 195100031.975 7


  22819306.166 7 119916269.314 7  93441288.162 6  22819316.245 6  22819305.612 6
  22819315.489 6

  25790248.387 7 135528676.279 7

  25790255.683 7 103846673.613 7
  24921928.330 7 130965619.109 7
                                                  24921928.567 5 106303258.150 5
  24921935.247 7 100350306.636 7
  22201578.875 5 118471875.398 5


  21805261.861 7 114587420.719 7  89288935.462 7  21805271.275 7  21805261.151 7
  21805271.313 6

  19623846.221 7 104606142.192 7


  21309906.434 7 111984317.063 7  87260531.331 5  21309911.603 5  21309905.437 5


  24852133.498 5 130598848.705 5 101765387.327 4  24852146.190 4  24852133.279 4
  24852145.882 5

  27043423.690 6 142114141.257 6

  27043434.591 6 108892692.956 6
  28073326.469 5 147526320.229 5

  28073343.954 5 113039710.498 5
  24683717.187 4
  24683740.107 4

  23969228.576 8 125959145.879 8
                  23969232.225 5  94060413.267 5  23969227.960 6 102239561.761 6
  23969235.272 8  96514176.788 8
  26446028.504 5 138974814.895 5

  26446037.753 6 106487226.943 6
  26139620.045 6 137364621.787 6

  26139627.723 7 105253441.414 7
  25971984.584 6 136483707.286 6

  25971994.407 7 104578465.178 7
  37209108.263 7 195535182.213 7


  19932160.267 8 106698411.542 8  82987701.418 7
  19932171.547 7

  21370438.953 7 114437728.819 7  89007177.569 7
  21370451.381 7

  26683819.779 6 140224416.275 6

  26683827.719 6 107444711.563 6
  23847838.109 5 127569849.643 5


  20015090.116 8 106879460.148 8  83128513.968 8
  20015100.435 8

  23084810.211 6 123358238.730 6  95945372.161 6
  23084827.915 6

  24053572.143 6 126402383.523 6  98495406.304 4  24053581.441 4  24053571.513 4
  24053580.813 5

 24 11 23 18  9  0.0000000  0 29G02G03G04G31S31S35G09E29E30R06G26R10
                                G16G06E02E13R22E07E08E26E27S33R07R08
                                E33R23R09R11G07
  24944149.851 4 131082376.723 4 102142150.736 1  24944159.733 1  24944148.743 1


  20168239.106 8 105984809.692 8  82585594.560 8  20168246.092 8  20168238.887 8
  20168246.653 7  20168240.197 5  79144504.376 5

  21144163.036 7 111113326.316 7  86581839.411 5  21144168.977 5  21144162.576 5
  21144169.074 7

  22730764.255 7 119450962.386 7  93078699.429 6  22730771.125 6  22730763.750 6
  22730771.963 6

  37076587.494 7 194838824.247 7


  37126287.884 7 195099963.020 7


  22805852.762 6 119845568.821 6  93386196.910 6  22805861.687 6  22805852.199 6
  22805861.653 6

  25781368.467 7 135482010.821 7

  25781375.419 7 103810917.004 7
  24917671.447 7 130943249.065 7
                                                  24917671.466 5 106285100.631 5
  24917678.321 7 100333165.919 7
  22214984.903 5 118543412.471 5


  21812801.881 7 114627043.511 7  89319810.306 7  21812811.468 7  21812801.175 7
  21812811.657 7

  19614113.595 7 104554263.299 7


  21301362.133 7 111939416.644 7  87225544.028 5  21301367.240 5  21301361.141 5


  24847412.342 6 130574040.485 6 101746056.237 4  24847425.123 4  24847412.119 4
  24847425.472 5

  27053334.892 6 142166224.720 6

  27053346.371 6 108932600.833 6
  28089543.895 5 147611539.123 5

  28089560.839 5 113105007.859 5
  24701956.972 4
  24701970.809 3

  23969195.759 8 125958973.486 8
                  23969199.193 5  94060284.460 5  23969195.098 6 102239421.795 6
  23969202.630 8  96514044.648 8
  26454384.730 5 139018728.315 5

  26454394.082 6 106520874.798 6
  26151894.459 6 137429125.399 6

  26151902.494 6 105302866.152 6
  25956070.412 6 136400078.340 6

  25956080.152 7 104514385.956 7
  37209112.766 7 195535175.960 7


  19931011.331 8 106692259.925 8  82982916.816 7
  19931022.369 7

  21355342.550 7 114356885.135 7  88944299.221 6
  21355354.518 6

  26684542.018 6 140228213.135 6

  26684550.118 6 107447620.824 6
  23861904.067 5 127645096.078 5


  20025882.900 8 106937092.890 8  83173339.388 8
  20025893.262 8

  23060707.450 6 123229438.092 6  95845194.204 6
  23060723.825 6

  24039891.650 6 126330491.502 6  98439386.734 4  24039900.623 4  24039891.016 4
  24039901.022 5

 24 11 23 18  9 30.0000000  0 28G02G03G04G31S31S35G09E29E30R06G26R10
                                G16G06E02E13E07E08E26E27S33R07R08E33
                                R23R09R11G07
  24958819.632 5 131159463.482 5 102202217.967 1  24958828.904 1  24958818.541 1


  20171933.199 8 106004222.428 8  82600721.320 8  20171940.050 8  20171932.980 8
  20171940.789 7  20171934.401 5  79159000.830 5

  21137002.084 7 111075696.351 7  86552517.375 5  21137007.982 5  21137001.615 5
  21137008.407 7

  22748299.786 7 119543113.746 7  93150505.543 6  22748307.036 6  22748299.277 6
  22748307.636 6

  37076588.433 7 194838819.605 7


  37126274.679 7 195099893.019 7


  22792406.111 7 119774907.129 7  93331135.893 6  22792414.700 6  22792405.557 6
  22792415.684 6

  25772488.321 7 135435346.974 7

  25772495.711 7 103775161.646 7
  24913492.035 7 130921286.194 7
                                                  24913492.203 5 106267273.571 5
  24913498.849 7 100316337.188 7
  22228455.568 5 118615289.389 5


  21820450.799 7 114667239.571 7  89351131.858 7  21820460.500 7  21820450.093 7
  21820460.422 7

  19604519.738 7 104503123.944 7


  21292928.496 8 111895097.037 8  87191009.304 5  21292933.549 5  21292927.504 5


  24842788.468 5 130549740.425 5 101727121.113 4  24842801.327 4  24842788.196 4
  24842802.557 5

  27063308.838 6 142218637.183 6

  27063320.238 6 108972760.807 6
  28105736.256 5 147696633.401 5

  28105754.065 5 113170209.646 5
  23969177.166 8 125958875.363 8
                  23969180.399 5  94060211.127 5  23969176.567 6 102239342.120 6
  23969183.929 8  96513969.417 8
  26462753.520 5 139062703.951 5

  26462762.323 6 106554570.287 6
  26164210.935 6 137493848.632 6

  26164218.775 6 105352459.169 6
  25940182.462 6 136316587.312 6

  25940192.327 7 104450412.421 7
  37209110.025 7 195535167.937 7


  19929933.594 8 106686494.445 8  82978432.550 7
  19929945.143 7

  21340260.038 7 114276128.275 7  88881488.372 6
  21340272.982 6

  26685344.165 6 140232429.451 6

  26685352.676 6 107450851.512 6
  23876039.370 5 127720698.707 5


  20036796.862 8 106995372.519 8  83218667.941 8
  20036807.580 8

  23036640.763 6 123100834.200 6  95745169.386 6
  23036656.826 6

  24026250.761 6 126258805.986 6  98383528.082 4  24026259.071 4  24026250.118 4
  24026259.313 5

 24 11 23 18 10  0.0000000  0 29G02G03G04G31S31S35G09E29E30R06G26R10
                                G16G06E02E13R22E07E08E26E27S33R07R08
                                E33R23R09R11G07
  24973471.934 5 131236463.012 5 102262217.220 1  24973481.683 1  24973470.741 1


  20175740.055 8 106024226.787 8  82616309.087 8  20175746.814 8  20175739.836 8
  20175747.696 7  20175741.246 5  79173939.107 5

  21129870.364 7 111038218.964 7  86523314.227 5  21129876.482 5  21129869.895 5
  21129876.575 7

  22765859.676 7 119635388.497 7  93222407.798 6  22765866.387 6  22765859.171 6
  22765866.972 6

  37076591.022 7 194838828.288 7


  37126262.861 7 195099837.922 7


  22778969.987 7 119704300.465 7  93276117.738 6  22778978.945 6  22778969.442 6
  22778979.048 6

  25763612.075 7 135388700.372 7

  25763619.235 7 103739419.487 7
  24909393.392 7 130899746.821 7
                                                  24909393.260 5 106249790.304 5
  24909400.262 7 100299832.955 7
  22241989.834 5 118687521.673 5


  21828212.081 7 114708023.112 7  89382911.200 7  21828221.314 7  21828211.379 7
  21828221.337 7

  19595068.212 7 104452741.683 7


  21284608.501 8 111851375.968 8  87156940.967 5  21284613.836 5  21284607.513 5


  24838262.882 6 130525964.502 6 101708594.422 4  24838277.172 4  24838262.596 4
  24838277.351 5

  27073348.264 6 142271392.927 6

  27073359.811 6 109013183.840 6
  28121908.703 5 147781616.761 5

  28121926.303 5 113235326.507 5
  24738368.893 4
  24738394.353 4

  23969175.744 8 125958867.561 8
                  23969179.496 5  94060205.269 5  23969175.110 6 102239335.761 6
  23969182.561 8  96513963.397 8
  26471136.652 5 139106757.888 5

  26471145.873 6 106588325.804 6
  26176572.180 6 137558805.019 6

  26176579.517 6 105402230.847 6
  25924324.517 7 136233251.717 7

  25924334.119 7 104386557.998 7
  37209111.496 7 195535174.601 7


  19928932.025 8 106681132.644 8  82974262.269 7
  19928943.902 7

  21325199.844 7 114195476.462 7  88818759.252 6
  21325211.906 6

  26686229.388 6 140237080.398 6

  26686237.467 6 107454415.210 6
  23890239.963 5 127796669.690 5


  20047834.258 8 107054311.571 8  83264509.357 8
  20047844.792 8

  23012615.156 6 122972446.731 6  95645312.901 6
  23012631.731 6

  24012651.448 6 126187343.154 6  98327842.941 4  24012659.566 4  24012650.818 4
  24012660.232 5

 24 11 23 18 10 30.0000000  0 29G02G03G04G31S31S35G09E29E30R06G26R10
                                G16G06E02E13R22E07E08E26E27S33R07R08
                                E33R23R09R11G07
  24988107.290 5 131313362.343 5 102322138.445 1  24988115.573 1  24988105.949 1


  20179657.420 8 106044812.114 8  82632349.558 8  20179664.166 8  20179657.197 8
  20179664.603 7  20179658.364 5  79189311.228 5

  21122765.794 7 111000884.327 7  86494222.320 5  21122771.731 5  21122765.329 5
  21122772.146 7

  22783440.120 7 119727773.941 7  93294396.303 6  22783446.893 6  22783439.615 6
  22783447.846 6

  37076593.701 7 194838841.192 7


  37126254.056 7 195099786.022 7


  22765542.810 7 119633738.855 7  93221134.691 6  22765551.660 6  22765542.256 6
  22765552.348 6

  25754736.364 7 135342060.484 7

  25754743.817 7 103703682.461 7
  24905373.273 7 130878621.071 7
                                                  24905373.336 5 106232642.761 5
  24905380.125 7 100283645.673 7
  22255592.366 5 118760098.573 5


  21836082.258 7 114749382.172 7  89415139.008 7  21836091.750 7  21836081.561 7
  21836091.635 7

  19585756.695 7 104403107.781 7


  21276400.817 7 111808245.218 7  87123332.601 5  21276406.236 5  21276399.829 5


  24833836.479 6 130502702.390 6 101690468.110 4  24833849.666 4  24833836.184 4
  24833850.650 5

  27083450.542 6 142324480.101 6

  27083461.785 6 109053860.842 6
  28138056.995 5 147866476.989 5

  28138074.842 5 113300348.982 5
  24756557.562 3


  23969189.579 8 125958939.961 8
                  23969193.188 5  94060259.258 5  23969188.574 6 102239394.478 6
  23969196.414 8  96514018.822 8
  26479532.819 5 139150880.011 5

  26479541.982 5 106622133.555 5
  26188974.924 6 137623981.910 6

  26188982.425 6 105452171.479 6
  25908493.656 6 136150062.943 6

  25908503.718 7 104322816.108 7
  37209112.583 7 195535185.757 7


  19928004.463 8 106676165.685 8  82970399.079 7
  19928015.316 7

  21310157.010 7 114114921.263 7  88756105.271 6
  21310168.889 6

  26687194.710 6 140242154.962 6

  26687203.077 6 107458303.490 6
  23904508.008 5 127872992.914 5


  20058992.379 8 107113896.159 8  83310852.846 8
  20059003.335 8

  22988627.110 6 122844268.418 6  95545619.216 5
  22988643.598 5

  23999092.935 6 126116092.842 6  98272323.401 4  23999100.569 4  23999092.372 4
  23999102.081 5

 24 11 23 18 11  0.0000000  0 29G02G03G04G31S31S35G09E29E30R06G26R10
                                G16G06E02E13R22E07E08E26E27S33R07R08
                                E33R23R09R11G07
  25002720.109 5 131390158.510 5 102381979.303 1  25002729.716 1  25002718.737 1


  20183684.895 8 106065977.554 8  82648842.065 8  20183691.873 8  20183684.676 8
  20183692.391 7  20183685.986 5  79205116.524 5

  21115688.565 7 110963692.446 7  86465241.652 5  21115694.503 5  21115688.100 5
  21115694.671 7

  22801041.230 7 119820266.870 7  93366468.554 6  22801047.798 6  22801040.721 6
  22801048.645 6

  37076596.044 7 194838857.702 7


  37126244.827 7 195099738.075 7


  22752123.454 6 119563222.194 6  93166186.673 6  22752132.343 6  22752122.887 6
  22752132.940 6

  25745862.524 7 135295426.576 7

  25745869.483 7 103667950.022 7
  24901431.799 7 130857908.878 7
                                                  24901431.814 5 106215830.882 5
  24901438.786 7 100267775.271 7
  22269257.515 5 118833018.943 5


  21844061.776 7 114791314.536 7  89447813.545 7  21844071.168 7  21844061.079 7
  21844071.485 7

  19576585.944 7 104354222.704 7


  21268306.134 7 111765705.994 7  87090185.158 5  21268311.146 5  21268305.142 5


  24829508.391 6 130479953.533 6 101672741.718 3  24829520.867 3  24829508.047 3
  24829521.462 5

  27093615.227 6 142377896.630 6

  27093627.188 6 109094790.242 6
  28154181.819 5 147951211.431 5

  28154199.882 5 113365275.104 5

  24774721.743 3

  23969218.403 8 125959092.200 8
                  23969221.896 5  94060372.896 5  23969217.662 6 102239518.019 6
  23969225.439 8  96514135.423 8
  26487942.072 5 139195070.013 5

  26487950.678 5 106655993.306 5
  26201419.204 6 137689376.502 6

  26201426.770 6 105502278.921 6
  25892691.390 6 136067022.184 6

  25892701.267 7 104259187.641 7
  37209116.227 7 195535199.121 7


  19927150.504 8 106671595.096 8  82966844.163 7
  19927161.881 7

  21295131.524 7 114034463.915 7  88693527.361 7
  21295144.048 7

  26688240.957 6 140247651.856 6

  26688248.984 6 107462515.364 6
  23918840.223 5 127949663.886 5


  20070271.033 8 107174122.473 8  83357695.456 8
  20070281.739 8

  22964680.302 6 122716301.768 6  95446090.185 6
  22964696.286 6

  23985574.330 6 126045054.532 6  98216969.049 4  23985582.067 4  23985573.794 4
  23985583.351 5

 24 11 23 18 11 30.0000000  0 29G02G03G04G31S31S35G09E29E30R06G26R10
                                G16G06E02E13R22E07E08E26E27S33R07R08
                                E33R23R09R11G07
  25017312.261 5 131466846.124 5 102441735.639 1  25017323.138 1  25017310.840 1


  20187822.654 8 106087720.375 8  82665784.476 8  20187829.416 8  20187822.431 8
  20187830.027 7  20187823.304 5  79221352.973 5

  21108637.740 7 110926641.467 7  86436370.786 5  21108644.020 5  21108637.280 5
  21108644.107 7

  22818661.533 7 119912862.995 7  93438621.217 6  22818668.410 6  22818661.019 6
  22818668.979 6

  37076600.699 7 194838874.102 7


  37126236.679 7 195099690.873 7


  22738712.731 6 119492748.485 6  93111272.119 6  22738721.097 6  22738712.173 6
  22738722.180 6

  25736988.821 7 135248796.099 7

  25736995.832 7 103632220.203 7
  24897568.838 7 130837608.360 7
                                                  24897568.957 5 106199353.207 5
  24897575.708 7 100252220.321 7
  22282985.428 5 118906279.995 5


  21852149.545 7 114833816.140 7  89480931.649 7  21852159.171 7  21852148.848 7
  21852159.069 7

  19567555.526 7 104306085.583 7


  21260323.802 7 111723757.978 7  87057498.386 5  21260328.723 5  21260322.805 5


  24825276.490 5 130457715.674 5 101655413.509 3  24825289.608 3  24825276.128 3
  24825290.062 5

  27103842.135 6 142431638.421 6

  27103853.771 6 109135968.873 6
  28170281.646 5 148035815.744 5

  28170299.967 5 113430101.491 5
  24792772.885 3


  23969262.485 8 125959322.151 8
                  23969266.214 5  94060544.548 5  23969261.890 6 102239704.611 6
  23969269.047 8  96514311.562 8
  26496364.161 5 139239325.797 5

  26496372.762 5 106689903.434 5
  26213903.955 6 137754984.058 6

  26213911.391 6 105552549.533 6
  25876917.434 6 135984128.744 6

  25876926.937 7 104195672.067 7
  37209117.528 7 195535213.790 7


  19926370.663 8 106667420.099 8  82963596.939 7
  19926381.879 7

  21280125.994 7 113954104.265 7  88631025.480 6
  21280137.087 6

  26689366.845 6 140253567.988 6

  26689375.277 6 107467048.483 6
  23933236.155 5 128026675.323 5


  20081668.552 8 107234984.965 8  83405032.847 8
  20081679.399 8

  22940770.583 6 122588547.835 6  95346726.651 6
  22940788.123 6

  23972095.697 6 125974225.701 6  98161777.932 4  23972103.309 4  23972095.139 4
  23972104.338 5

 24 11 23 18 12  0.0000000  0 28G02G03G04G31S31S35G09E29E30R06G26R10
                                G16G06E02E13E07E08E26E27S33R07R08E33
                                R23R09R11G07
  25031886.262 5 131543424.411 5 102501406.744 1  25031895.637 1  25031885.006 1


  20192070.319 8 106110042.093 8  82683177.974 8  20192077.122 8  20192070.091 8
  20192077.715 7  20192071.485 5  79238021.749 5

  21101614.326 7 110889733.838 7  86407611.622 5  21101620.644 5  21101613.870 5
  21101620.756 7

  22836301.857 7 120005561.861 7  93510853.922 6  22836308.814 6  22836301.357 6
  22836309.483 6

  37076604.973 7 194838893.145 7


  37126227.843 7 195099645.538 7


  22725310.592 7 119422320.021 7  93056392.824 6  22725319.269 6  22725310.042 6
  22725320.312 6

  25728116.102 7 135202170.742 7

  25728123.384 7 103596494.295 7
  24893784.532 7 130817721.816 7
                                                  24893784.748 5 106183211.523 5
  24893791.465 7 100236982.576 7
  22296779.959 5 118979883.188 5


  21860345.737 7 114876887.169 7  89514493.458 7  21860355.508 7  21860345.040 7
  21860355.343 7

  19558666.271 7 104258699.549 7


  21252454.672 7 111682405.105 7  87025275.354 5  21252459.629 5  21252453.671 5


  24821142.871 5 130435990.636 5 101638484.909 3  24821155.763 3  24821142.518 3
  24821155.382 5

  27114130.896 6 142485705.834 6

  27114142.735 6 109177397.018 6
  28186356.474 5 148120289.821 5

  28186374.982 5 113494828.098 5
  23969321.393 8 125959631.938 8
                  23969324.636 5  94060775.873 5  23969320.768 6 102239956.035 6
  23969328.027 8  96514548.885 8
  26504798.347 5 139283649.445 5

  26504807.983 5 106723865.602 5
  26226429.308 6 137820804.196 6

  26226436.492 6 105602983.015 6
  25861171.985 7 135901386.251 7

  25861181.228 7 104132272.185 7
  37209120.582 7 195535230.278 7


  19925664.631 8 106663644.267 8  82960660.173 7
  19925676.585 7

  21265138.736 7 113873846.135 7  88568602.554 7
  21265149.474 7

  26690572.933 6 140259904.542 6

  26690580.996 6 107471903.762 6
  23947697.493 5 128104025.054 5


  20093184.997 8 107296481.658 8  83452863.506 8
  20093195.994 8

  22916903.167 6 122461011.238 6  95247532.160 6
  22916920.584 6

  23958657.529 6 125903608.881 6  98106752.018 4  23958664.746 4  23958656.984 4
  23958667.257 5

 24 11 23 18 12 30.0000000  0 28G02G03G04G31S31S35G09E29E30R06G26R10
                                G16G06E02E13E07E08E26E27S33R07R08E33
                                R23R09R11G07
  25046436.689 5 131619885.654 5 102560986.577 1  25046446.042 1  25046435.581 1


  20196427.030 8 106132937.017 8  82701018.132 8  20196433.940 8  20196426.802 8
  20196434.653 7  20196427.983 5  79255118.571 5

  21094617.430 7 110852964.806 7  86378960.449 5  21094623.842 5  21094616.970 5
  21094623.750 7

  22853959.926 7 120098355.822 7  93583160.719 6  22853967.220 6  22853959.430 6
  22853967.885 6

  37076611.256 7 194838908.512 7


  37126218.511 7 195099597.027 7


  22711916.259 6 119351931.957 6  93001545.024 5  22711925.203 5  22711915.678 5
  22711925.266 6

  25719244.008 7 135155545.074 7

  25719251.004 7 103560768.147 7
  24890078.061 7 130798244.351 7
                                                  24890078.118 5 106167401.875 5
  24890085.059 7 100222058.281 7
  22310635.820 5 119053823.077 5


  21868649.031 7 114920520.614 7  89548493.502 7  21868658.439 7  21868648.334 7
  21868658.181 6

  19549916.474 7 104212060.155 7


  21244697.849 7 111641643.678 7  86993513.184 5  21244702.857 5  21244696.843 5


  24817103.823 5 130414773.098 5 101621951.776 3  24817117.512 3  24817103.475 3
  24817117.644 5

  27124480.388 6 142540091.944 6

  27124492.055 6 109219069.374 6
  28202405.707 5 148204626.401 5

  28202423.908 5 113559449.312 5
  23969394.745 8 125960016.470 8
                  23969397.912 5  94061062.944 5  23969393.958 6 102240268.108 6
  23969401.566 8  96514843.490 8
  26513245.232 5 139328035.926 5

  26513254.303 5 106757875.878 5
  26238993.259 6 137886829.256 6

  26239000.836 6 105653573.536 6
  25845454.256 7 135818791.104 7

  25845464.011 7 104068985.199 7
  37209121.651 7 195535243.488 7


  19925034.180 8 106660264.266 8  82958031.258 7
  19925045.012 7

  21250168.487 7 113793686.416 7  88506256.161 6
  21250179.715 6

  26691857.512 6 140266655.466 6

  26691865.589 6 107477076.522 6
  23962219.309 5 128181702.622 5


  20104818.569 8 107358604.040 8  83501180.803 8
  20104829.333 8

  22893075.214 6 122333690.089 6  95148505.222 6
  22893093.331 6

  23945258.891 6 125833198.801 6  98051887.191 4  23945266.267 4  23945258.341 4
  23945267.510 5

 24 11 23 18 13  0.0000000  0 29G02G03G04G31S31S35G09E29E30R06G26R10
                                G16G06E02E13R22E07E08E26E27S33R07R08
                                E33R23R09R11G07
  25060963.699 5 131696231.265 5 102620476.369 1  25060974.791 1  25060962.769 1


  20200893.644 8 106156408.787 8  82719307.779 8  20200900.537 8  20200893.421 8
  20200901.438 7  20200894.675 5  79272646.127 5

  21087648.068 7 110816338.966 7  86350420.852 5  21087653.772 5  21087647.608 5
  21087654.290 7

  22871636.760 7 120191246.865 7  93655543.146 6  22871643.964 6  22871636.273 6
  22871644.852 6

  37076614.838 7 194838924.846 7


  37126209.040 7 195099549.462 7


  22698529.844 6 119281588.726 6  92946732.152 5  22698538.873 5  22698529.259 5
  22698539.285 6

  25710371.951 7 135108922.982 7

  25710379.015 7 103525044.723 7
  24886450.359 7 130779180.464 7
                                                  24886450.421 5 106151927.958 5
  24886457.275 7 100207450.891 7
  22324555.800 5 119128103.196 5


  21877059.502 7 114964718.768 7  89582933.575 7  21877068.931 7  21877058.800 7
  21877069.211 6

  19541308.478 7 104166172.854 7


  21237054.832 7 111601479.671 7  86962216.531 5  21237059.826 5  21237053.826 5


  24813164.500 5 130394067.075 5 101605817.224 4  24813177.713 4  24813164.116 4
  24813178.668 5

  27134890.936 6 142594799.237 6

  27134902.706 6 109260987.853 6
  28218428.949 5 148288827.581 5

  28218447.302 5 113623966.806 5
  24847016.403 3
  24846994.262 4

  23969482.829 8 125960480.047 8
                  23969486.200 5  94061409.119 5  23969481.854 6 102240644.361 6
  23969489.652 8  96515198.652 8
  26521704.506 5 139372489.573 5

  26521713.621 5 106791937.605 5
  26251596.958 6 137953061.004 6

  26251604.366 6 105704322.439 6
  25829766.008 6 135736349.082 6

  25829775.505 7 104005815.574 7
  37209119.786 7 195535257.796 7


  19924477.689 8 106657285.717 8  82955714.595 7
  19924488.502 7

  21235218.797 7 113713631.280 7  88443991.095 6
  21235230.983 6

  26693221.831 6 140273824.068 6

  26693229.755 6 107482569.336 6
  23976803.452 5 128259707.859 5


  20116569.041 8 107421352.518 8  83549985.066 8
  20116580.424 8

  22869291.137 6 122206591.929 6  95049651.692 6
  22869307.898 6

  23931900.031 6 125762999.697 6  97997186.753 4  23931908.314 4  23931899.437 4
  23931909.771 5

 24 11 23 18 13 30.0000000  0 28G02G03G04G31S31S35G09E29E30R06G26R10
                                G16G06E02E13E07E08E26E27S33R07R08E33
                                R23R09R11G07
  25075470.153 5 131772456.975 5 102679872.659 1  25075480.355 1  25075469.210 1


  20205469.651 8 106180455.676 8  82738045.572 8  20205476.348 8  20205469.428 8
  20205477.259 7  20205470.842 5  79290603.154 5

  21080705.534 7 110779855.622 7  86321992.296 5  21080711.359 5  21080705.074 5
  21080711.380 7

  22889331.099 7 120284231.236 7  93727998.287 6  22889338.600 6  22889330.608 6
  22889339.051 6

  37076614.824 7 194838939.428 7


  37126200.155 7 195099501.331 7


  22685152.683 6 119211289.554 6  92891953.616 6  22685161.437 6  22685152.111 6
  22685161.716 6

  25701500.278 7 135062303.006 7

  25701507.577 7 103489322.937 7
  24882901.125 7 130760529.270 7
                                                  24882901.299 5 106136788.984 5
  24882907.884 7 100193159.712 7
  22338541.755 5 119202721.555 5


  21885577.135 7 115009478.622 7  89617811.331 7  21885586.495 7  21885576.433 7
  21885586.640 6

  19532841.168 7 104121037.612 7


  21229525.547 7 111561913.547 7  86931385.756 5  21229530.620 5  21229524.541 5


  24809320.636 5 130373871.248 5 101590080.208 4  24809334.644 4  24809320.185 4
  24809334.988 5

  27145362.082 6 142649824.794 6

  27145373.710 6 109303150.182 6
  28234426.055 5 148372890.129 5

  28234444.097 5 113688378.060 5
  23969585.848 8 125961021.613 8
                  23969589.430 5  94061813.452 5  23969585.032 6 102241083.909 6
  23969592.635 8  96515613.582 8
  26530176.330 5 139417009.285 5

  26530185.562 5 106826049.995 5
  26264239.170 6 138019495.835 6

  26264246.550 6 105755226.915 6
  25814106.949 7 135654060.567 7

  25814116.315 7 103942763.575 7
  37209126.199 7 195535270.219 7


  19923996.910 8 106654709.108 8  82953710.539 7
  19924007.280 7

  21220288.456 7 113633681.650 7  88381808.108 7
  21220299.987 7

  26694665.013 6 140281408.263 6

  26694672.897 6 107488380.574 6
  23991444.350 5 128338035.327 5


  20128436.775 8 107484722.452 8  83599272.687 8
  20128447.439 8

  22845547.853 6 122079718.081 6  94950972.647 6
  22845564.260 6

  23918581.427 6 125693009.957 6  97942649.457 4  23918589.868 4  23918580.757 4
  23918590.406 5

 24 11 23 18 14  0.0000000  0 29G02G03G04G31S31S35G09E29E30R06G26R10
                                G16G06E02E13R22E07E08E26E27S33R07R08
                                E33R23R09R11G07
  25089952.051 5 131848562.559 5 102739175.471 1  25089963.162 1  25089951.108 1


  20210155.388 8 106205079.529 8  82757232.951 8  20210162.095 8  20210155.165 8
  20210163.144 7  20210156.381 5  79308991.068 5

  21073790.470 7 110743517.695 7  86293677.054 6  21073796.344 6  21073790.014 6
  21073796.699 7

  22907043.470 7 120377309.084 7  93800526.268 6  22907050.898 6  22907042.979 6
  22907051.496 6

  37076615.804 7 194838955.837 7


  37126191.359 7 195099453.566 7


  22671783.948 6 119141037.151 6  92837211.534 6  22671793.128 6  22671783.390 6
  22671793.107 6

  25692629.836 7 135015687.361 7

  25692636.785 7 103453604.453 7
  24879430.907 7 130742293.437 7
                                                  24879431.030 5 106121987.187 5
  24879437.722 7 100179186.804 7
  22352587.099 5 119277680.168 5


  21894201.785 7 115054800.676 7  89653127.162 7  21894210.981 7  21894201.079 7
  21894211.344 6

  19524515.653 7 104076657.510 7


  21222111.328 7 111522949.434 7  86901024.074 5  21222116.151 5  21222110.313 5


  24805575.079 5 130354187.809 5 101574742.461 4  24805588.404 4  24805574.610 4
  24805589.357 5

  27155893.736 6 142705169.301 6

  27155905.495 6 109345556.967 6
  28250395.532 5 148456814.264 5

  28250414.619 5 113752683.213 5
  24882942.594 3
  24882960.788 3

  23969704.352 8 125961643.741 8
                  23969707.831 5  94062277.967 5  23969703.682 6 102241588.875 6
  23969711.211 8  96516090.242 8
  26538661.169 5 139461597.719 5

  26538670.589 5 106860214.994 5
  26276919.898 6 138086133.730 6

  26276927.435 6 105806287.004 6
  25798477.751 7 135571929.616 7

  25798486.896 7 103879832.312 7
  37209131.699 7 195535284.132 7


  19923590.595 8 106652538.766 8  82952022.466 7
  19923601.811 7

  21205379.584 7 113553841.868 7  88319710.558 7
  21205390.765 7

  26696187.765 6 140289409.572 6

  26696195.618 6 107494511.417 6
  24006146.713 5 128416682.230 5


  20140420.408 8 107548712.865 8  83649042.899 8
  20140431.117 8

  22821848.267 6 121953074.578 6  94852472.719 6
  22821864.416 6

  23905303.300 6 125623232.234 6  97888277.349 4  23905311.720 4  23905302.612 4
  23905312.348 5

 24 11 23 18 14 30.0000000  0 28G02G03G04G31S31S35G09E29E30R06G26R10
                                G16G06E02E13E07E08E26E27S33R07R08E33
                                R23R09R11G07
  25104410.869 5 131924542.005 5 102798380.019 1  25104422.064 1  25104409.752 1


  20214950.234 8 106230276.348 8  82776866.797 8  20214956.939 8  20214950.006 8
  20214957.925 7  20214951.497 5  79327806.834 5

  21066902.552 7 110707322.223 7  86265472.822 5  21066908.569 5  21066902.096 5
  21066908.841 7

  22924772.366 7 120470474.829 7  93873122.745 6  22924779.804 6  22924771.875 6
  22924780.607 6

  37076617.141 7 194838969.513 7


  37126182.488 7 195099404.459 7


  22658424.037 6 119070828.495 6  92782503.549 6  22658432.850 6  22658423.461 6
  22658433.046 6

  25683759.361 7 134969072.328 7

  25683766.113 7 103417886.451 7
  24876039.266 7 130724469.855 7
                                                  24876039.068 5 106107519.994 5
  24876046.089 7 100165529.785 7
  22366698.013 5 119352974.899 5


  21902932.325 7 115100679.616 7  89688876.926 7  21902941.618 7  21902931.623 7
  21902941.894 6

  19516331.411 7 104033030.433 7


  21214810.719 7 111484585.883 7  86871130.361 5  21214815.820 5  21214809.709 5


  24801927.485 6 130335013.137 6 101559801.178 4  24801939.770 4  24801927.034 4
  24801941.057 5

  27166485.139 6 142760827.623 6

  27166497.052 6 109388204.182 6
  28266339.057 5 148540594.583 5

  28266357.881 5 113816878.234 5
  23969837.445 8 125962343.167 8
                  23969841.089 5  94062800.289 5  23969836.673 6 102242156.557 6
  23969844.324 8  96516626.138 8
  26547158.586 5 139506251.526 5

  26547168.320 5 106894430.124 5
  26289638.304 6 138152968.844 6

  26289645.648 6 105857498.212 6
  25782878.071 7 135489954.403 7

  25782887.421 7 103817020.371 7
  37209134.221 7 195535295.897 7


  19923260.914 8 106650772.502 8  82950648.686 7
  19923272.425 7

  21190489.419 7 113474110.672 7  88257697.460 7
  21190501.364 7

  26697788.875 6 140297823.728 6

  26697796.609 6 107500958.611 6
  24020908.528 5 128495640.613 5


  20152518.508 8 107613316.164 8  83699289.793 8
  20152529.338 8

  22798192.434 6 121826661.005 6  94754151.606 6
  22798207.456 6

  23892065.005 6 125553663.210 6  97834067.864 5  23892073.535 5  23892064.299 5
  23892073.359 5

 24 11 23 18 15  0.0000000  0 28G02G03G04G31S31S35G09E29E30R06G26R10
                                G16G06E02E13E07E08E26E27S33R07R08E33
                                R23R09R11G07
  25118845.368 5 132000399.737 5 102857489.607 1  25118857.955 1  25118844.237 1


  20219855.544 8 106256052.701 8  82796952.227 8  20219862.064 8  20219855.321 8
  20219863.059 7  20219856.663 5  79347055.346 5

  21060043.477 7 110671276.908 7  86237385.585 6  21060049.641 6  21060043.026 6
  21060049.497 7

  22942519.099 7 120563733.268 7  93945791.448 6  22942526.596 6  22942518.617 6
  22942527.306 6

  37076623.951 7 194838987.348 7


  37126172.708 7 195099358.800 7


  22645073.728 7 119000671.134 7  92727835.533 6  22645082.347 6  22645073.152 6
  22645082.589 6

  25674890.174 7 134922464.938 7

  25674897.049 7 103382174.301 7
  24872727.477 7 130707065.993 7
                                                  24872726.919 5 106093393.477 5
  24872734.140 7 100152194.358 7
  22380872.273 5 119428612.503 5


  21911769.621 7 115147120.750 7  89725064.753 7  21911779.230 7  21911768.915 7
  21911779.365 6

  19508290.351 7 103990164.687 7


  21207626.353 7 111446831.250 7  86841711.137 5  21207631.305 5  21207625.347 5


  24798376.610 5 130316354.250 5 101545261.777 4  24798388.810 4  24798376.172 4
  24798389.287 5

  27177137.215 6 142816805.155 6

  27177149.272 6 109431096.022 6
  28282255.674 5 148624236.247 5

  28282274.574 5 113880967.039 5
  23969986.694 8 125963127.265 8
                  23969989.999 5  94063385.771 5  23969985.822 6 102242792.968 6
  23969993.406 8  96517226.919 8
  26555669.595 5 139550978.163 5

  26555679.300 5 106928701.015 5
  26302395.229 6 138220005.986 6

  26302402.514 6 105908864.204 6
  25767309.835 7 135408143.703 7

  25767319.243 7 103754334.508 7
  37209133.769 7 195535311.178 7


  19923008.585 8 106649419.354 8  82949596.214 7
  19923019.402 7

  21175622.564 7 113394497.330 7  88195776.020 7
  21175634.442 7

  26699469.703 6 140306656.946 6

  26699477.689 6 107507726.893 6
  24035723.718 5 128574913.483 5


  20164732.321 8 107678536.496 8  83750016.613 8
  20164743.044 8

  22774579.199 6 121700487.761 6  94656017.363 6
  22774596.701 6

  23878866.968 6 125484310.024 6  97780026.561 5  23878875.810 5  23878866.284 5
  23878875.690 5

 24 11 23 18 15 30.0000000  0 28G02G03G04G31S31S35G09E29E30R06G26R10
                                G16G06E02E13E07E08E26E27S33R07R08E33
                                R23R09R11G07
  25133256.804 5 132076125.443 5 102916496.452 1  25133268.376 1  25133255.557 1


  20224869.276 8 106282400.296 8  82817482.778 8  20224876.027 8  20224869.048 8
  20224876.716 7  20224870.228 5  79366730.472 5

  21053211.492 7 110635374.540 7  86209409.726 6  21053217.539 6  21053211.041 6
  21053217.619 7

  22960281.210 7 120657074.190 7  94018524.421 6  22960288.950 6  22960280.732 6
  22960289.337 6

  37076619.609 7 194839001.223 7
