     3.04           OBSERVATION DATA    M                   RINEX VERSION / TYPE
sbf2rin-13.8.0                          20241124 005301 UTC PGM / RUN BY / DATE 
MGRD                                                        MARKER NAME         
Unknown                                                     MARKER NUMBER       
Unknown             Unknown                                 OBSERVER / AGENCY   
3055064             SEPT POLARX5        5.4.0               REC # / TYPE / VERS 
Unknown             Unknown                                 ANT # / TYPE        
 -2455586.1536 -4767123.7993  3441726.2510                  APPROX POSITION XYZ 
        0.0000        0.0000        0.0000                  ANTENNA: DELTA H/E/N
G   11 C1C L1C C1W C2W L2W C2L L2L C5Q L5Q C1L L1L          SYS / # / OBS TYPES 
E   10 C1C L1C C6C L6C C5Q L5Q C7Q L7Q C8Q L8Q              SYS / # / OBS TYPES 
S    4 C1C L1C C5I L5I                                      SYS / # / OBS TYPES 
R   10 C1C L1C C1P L1P C2P L2P C2C L2C C3Q L3Q              SYS / # / OBS TYPES 
C   12 C1P L1P C5P L5P C2I L2I C7I L7I C6I L6I C7D L7D      SYS / # / OBS TYPES 
SEPTENTRIO RECEIVERS OUTPUT ALIGNED CARRIER PHASES.         COMMENT             
NO FURTHER PHASE SHIFT APPLIED IN THE RINEX ENCODER.        COMMENT             
G L1C                                                       SYS / PHASE SHIFT   
G L2W                                                       SYS / PHASE SHIFT   
G L2L  0.00000                                              SYS / PHASE SHIFT   
G L5Q  0.00000                                              SYS / PHASE SHIFT   
G L1L  0.00000                                              SYS / PHASE SHIFT   
E L1C  0.00000                                              SYS / PHASE SHIFT   
E L6C  0.00000                                              SYS / PHASE SHIFT   
E L5Q  0.00000                                              SYS / PHASE SHIFT   
E L7Q  0.00000                                              SYS / PHASE SHIFT   
E L8Q  0.00000                                              SYS / PHASE SHIFT   
S L1C                                                       SYS / PHASE SHIFT   
S L5I                                                       SYS / PHASE SHIFT   
R L1C                                                       SYS / PHASE SHIFT   
R L1P  0.00000                                              SYS / PHASE SHIFT   
R L2P  0.00000                                              SYS / PHASE SHIFT   
R L2C                                                       SYS / PHASE SHIFT   
R L3Q  0.00000                                              SYS / PHASE SHIFT   
C L1P  0.00000                                              SYS / PHASE SHIFT   
C L5P  0.00000                                              SYS / PHASE SHIFT   
C L2I                                                       SYS / PHASE SHIFT   
C L7I                                                       SYS / PHASE SHIFT   
C L6I                                                       SYS / PHASE SHIFT   
C L7D                                                       SYS / PHASE SHIFT   
    30.000                                                  INTERVAL            
  2024    11    23    17     9   30.0000000     GPS         TIME OF FIRST OBS   
  2024    11    23    18    59   30.0000000     GPS         TIME OF LAST OBS    
    44                                                      # OF SATELLITES     
 C1C    0.000 C1P    0.000 C2C    0.000 C2P    0.000        GLONASS COD/PHS/BIS 
  8 R07  5 R08  6 R09 -2 R10 -7 R11  0 R22 -3 R23  3 R24  2 GLONASS SLOT / FRQ #
                                                            END OF HEADER       
> 2024 11 23 17 09 30.0000000  0 29
C14                                                                  16103338.988 7  83854310.30307  16103341.512 8  64841482.50008  16103333.992 6  68138475.18706
C21  16727620.237 6  87904236.18206  16727623.581 5  65642784.95405  16727620.616 7  87105109.23807                                  16727616.526 6  70780019.37906  16727625.869 7  67355217.17707
C24  16087768.556 7  84541794.43807  16087769.595 5  63131863.10905  16087768.948 8  83773233.17008                                  16087767.574 6  68072609.05806  16087772.401 8  64778793.03908
C26  15095837.292 7  79329159.34607  15095839.503 5  59239317.26105  15095837.124 7  78607983.67307                                  15095836.531 6  63875424.18806  15095842.390 8  60784701.46408
C33  18135122.970 6  95300717.02306  18135154.028 5  71166236.82305  18135124.765 7  94434351.37607                                  18135138.230 5  76735706.86105  18135156.674 7  73022761.15207
E07  16996758.630 7  89318569.42007  16996756.221 5  72498825.88005  16996763.366 6  66698949.31206  16996765.568 8  68438932.36408  16996764.201 8  67568939.40808
E08  18459666.205 6  97006201.90006                                  18459670.547 5  72439710.50505  18459672.829 7  74329451.64007
E13  19034727.171 7 100028166.49607                                  19034735.704 5  74696393.64805  19034737.886 7  76645001.60607  19034736.485 7  75670691.20207
E26  18024112.583 7  94717351.30907  18024111.343 5  76880954.01705  18024115.271 5  70730500.34805  18024117.979 8  72575653.32108  18024116.896 7  71653069.89807
E29  19785050.509 6 103971142.00106                                                                  19785058.372 7  79666230.65607
E33  20098569.757 6 105618699.46006                                                                  20098578.672 6  80928648.35806
G02  16142844.865 7  84831223.10107  16142843.949 5  16142848.393 5  66102263.08105
G03  13416278.251 8  70503017.97108  13416278.202 8  13416283.655 8  54937437.65408  13416284.684 7  54937437.65207  13416280.474 6  52648367.30906
G04  15092869.109 7  79313564.07707  15092868.640 5  15092874.407 5  61802796.66405  15092874.780 7  61802797.66507  15092875.536 5  59227685.16205  15092868.916 7  79313565.08807
G09  17377560.187 6  91319696.55906  17377559.830 4  17377569.309 4  71158240.94404  17377569.806 5  71158246.93005
G16  15884743.406 6  83474890.54506  15884743.080 3  15884749.276 3  65045391.93403
G21  16966183.997 7  89157897.62907  16966183.407 4  16966190.388 4  69473712.23004
G26  14653355.099 6  77003898.06406  14653354.581 6  14653364.218 6  60003077.29406  14653364.720 7  60003074.30807  14653359.682 5  57502928.61505
G28  16380757.414 6  86081460.75106                                                  16380765.181 6  67076492.19706                                  16380757.522 6  86081464.74606
G31  13857312.450 7  72820668.27107  13857311.972 7  13857315.160 7  56743386.63807  13857316.289 7  56743388.64707
R07  13404344.745 7  71754510.29307  13404345.339 7  71754511.30107  13404358.535 7  55809118.86807  13404358.494 7  55809120.86007
R08  16110943.123 6  86273371.44106  16110943.767 6  86273371.46406  16110960.134 6  67101578.32206  16110960.737 6  67101576.32706
R09  12646691.851 7  67532625.77807  12646692.200 7  67532629.77707  12646704.031 8  52525428.23608  12646703.875 8  52525427.22708  12646688.099 7  50707195.95207
R10  14548421.926 7  77551278.00207  14548422.122 7  77551278.00007
R22  15519778.099 7  82845630.06407  15519778.774 7  82845632.06807  15519792.549 7  64435547.24507  15519792.393 7  64435544.22907
R23  15794966.998 6  84492418.34906  15794967.029 6  84492422.35406
S31  30014162.209 8 157725503.26608
S33  30146688.273 8 158421912.49108
S35  30065481.072 8 157995172.83608
> 2024 11 23 17 10  0.0000000  0 33
C11                                                                  26086767.748 6 135840647.81016  26086777.783 6 105040644.61816
C14                                                                  22989646.935 7 119713120.49007  22989649.203 8  92569789.21408  22989641.659 6  97276695.77906
C21  23632779.498 6 124191093.36706  23632782.817 5  92740113.23905  23632779.873 6 123062085.91006                                  23632776.468 6  99998008.17006  23632785.126 7  95159432.30707
C24  22968539.033 7 120700487.27207  22968540.211 5  90133484.50805  22968539.375 8 119603210.61208                                  22968537.864 6  97187400.76706  22968542.747 8  92484804.52808
C26  21992428.562 7 115570991.62207  21992430.690 5  86303023.19205  21992428.415 7 114520344.74507                                  21992428.007 6  93057159.22906  21992433.841 8  88554417.07208
C33  25017715.035 6 131468982.86206  25017746.381 4  98175006.82104  25017716.957 7 130273814.79407                                  25017730.266 5 105858206.63105  25017748.770 7 100736107.70907
C42  22082477.909 8 116044203.11218  22082490.479 6  86656434.80616  22082477.625 8 114989254.32418                                  22082485.099 6  93438220.49516  22082493.400 8  88917050.19418
C43  26156965.383 6 137455791.15516                                  26156966.603 6 136206188.59016                                                                  26156976.473 6 105323306.48616
E02  26206392.728 6 137715527.59916                                                                  26206401.748 7 105522322.04617
E07  23891847.400 7 125552506.43407  23891845.179 5 101909489.03005  23891852.250 6  93756759.40906  23891854.418 8  96202598.37808  23891853.250 8  94979677.46008
E08  25363646.303 6 133286861.81006                                  25363650.219 5  99532410.99505  25363652.857 7 102128918.23207
E13  25947607.967 7 136355599.79107                                  25947616.742 5 101824022.26005  25947618.768 7 104480307.48007  25947617.373 7 103152158.43307
E26  24925537.258 7 130984582.73207  24925535.576 4 106318641.79504  24925540.284 5  97813173.06905  24925542.915 8 100364830.56108  24925541.626 7  99088994.87807
E29  26672434.136 7 140164586.56407                                                                  26672442.152 7 107398869.94307
E33  26986541.989 6 141815235.86806                                                                  26986550.881 6 108663656.76006
G02  23052672.101 7 121142608.38607  23052670.890 5  23052675.656 5  94396848.88505
G03  20304540.972 8 106701081.68608  20304540.673 8  20304546.097 8  83143721.05408  20304547.076 7  83143721.05807  20304543.279 6  79679388.89406
G04  21979717.041 7 115504192.61107  21979716.357 5  21979721.544 5  90003286.42005  21979722.511 7  90003287.42307  21979723.248 5  86253154.45105  21979716.463 7 115504193.61007
G09  24260152.904 6 127487965.94606  24260152.359 5  24260162.230 5  99341307.97105  24260162.949 5  99341313.98805
G16  22763541.678 6 119623218.75006  22763540.668 3  22763548.227 3  93212920.50203
G21  23877711.826 6 125478221.38506  23877710.454 4  23877718.987 4  97775262.96104
G26  21544048.678 6 113214737.09206  21544047.959 6  21544057.649 6  88219315.53606  21544057.914 7  88219312.54607  21544053.334 5  84543490.27305
G28  23295134.355 6 122416753.20406  23295133.980 2  23295140.629 2  95389706.92712  23295140.838 6  95389706.91406                                  23295133.998 6 122416757.20706
G31  20765642.114 7 109124184.37707  20765641.497 7  20765644.880 7  85031840.69807  20765645.649 7  85031842.69107
R07  20293873.104 7 108634689.49907  20293872.683 7 108634690.49907  20293886.142 7  84493702.68307  20293885.795 7  84493704.69007
R08  22992583.994 6 123124240.49906  22992584.612 6 123124240.49406  22992599.714 6  95763365.31406  22992598.833 6  95763363.31406
R09  19537267.117 7 104327912.74707  19537267.378 7 104327916.74807  19537279.223 8  81143984.77308  19537279.144 8  81143983.77108  19537263.484 8  78335121.19508
R10  21422573.755 7 114194370.63107  21422573.121 7 114194370.64007
R22  22431793.443 7 119742434.34607  22431793.688 7 119742436.35207  22431807.691 7  93133061.53807  22431807.529 7  93133058.52407  22431792.917 6  89940803.70916
R23  22692936.419 6 121391898.73206  22692935.467 6 121391902.73506
S31  36910670.372 8 193966909.77008
S33  37043200.080 8 194663317.33408
S35  36961977.327 8 194236499.76208
> 2024 11 23 17 10 30.0000000  0 34
C11                                                                  26101302.236 6 135916325.04806  26101311.255 6 105099162.73706
C14                                                                  22979799.074 7 119661842.48107  22979801.913 8  92530137.80508  22979794.199 6  97235028.19506
C21  23641820.816 6 124238606.50406  23641824.456 5  92775593.68205  23641820.648 6 123109167.12506                                  23641817.890 6 100036265.42206  23641827.064 7  95195838.34807
C24  22953184.606 7 120619799.80807  22953185.462 5  90073231.01705  22953185.064 8 119523256.67608                                  22953183.259 6  97122431.71906  22953188.629 8  92422979.17408
C26  21992948.508 7 115573724.97907  21992950.946 5  86305064.26705  21992948.738 7 114523053.24907                                  21992948.134 6  93059360.10206  21992953.999 8  88556511.42308
C33  25004128.563 7 131397584.69907  25004159.510 4  98121689.97904  25004130.004 7 130203065.70807                                  25004143.460 5 105800717.19605  25004162.120 7 100681400.02307
C42  22078821.857 8 116024991.84808  22078834.890 6  86642088.73706  22078821.750 8 114970217.70608                                  22078829.313 6  93422751.67806  22078837.749 8  88902329.87108
C43  26169502.080 6 137521667.75106                                  26169502.292 6 136271466.27906                                                                  26169513.208 6 105373783.13806
E02  26208067.691 6 137724333.53306                                                                  26208077.571 7 105529069.45907
E07  23890781.329 7 125546904.19207  23890779.044 5 101904941.76105  23890786.356 5  93752575.91405  23890788.318 8  96198305.74408  23890787.281 8  94975439.39108
E08  25371470.684 6 133327979.03206                                  25371474.849 5  99563115.30905  25371477.644 7 102160423.54007
E13  25964357.330 7 136443617.91007                                  25964365.885 5 101889749.88905  25964368.075 7 104547749.76107  25964366.841 7 103218743.38707
E26  24930878.314 7 131012650.18307  24930877.494 5 106341423.75505  24930881.333 5  97834132.41505  24930884.297 8 100386336.69708  24930882.787 7  99110227.62307
E29  26663650.390 7 140118427.86607                                                                  26663658.904 7 107363501.52407
E33  26978412.629 6 141772516.37806                                                                  26978421.442 6 108630923.66206
G02  23066385.985 7 121214676.22607  23066384.729 5  23066389.553 5  94453005.50005
G03  20296714.137 8 106659952.61608  20296713.820 8  20296719.496 8  83111672.41708  20296720.320 7  83111672.41907  20296716.717 6  79648675.61206
G04  21970410.131 7 115455287.88707  21970409.452 5  21970415.377 5  89965178.84005  21970415.826 7  89965179.82807  21970416.822 5  86216634.71805  21970410.471 7 115455288.89307
G07  25710583.417 5 135110031.68615  25710583.051 3  25710597.587 3 105280600.35013  25710598.539 4 105280604.44314
G09  24246572.636 6 127416601.36706  24246572.002 4  24246581.052 4  99285699.16204  24246582.184 5  99285705.16205
G16  22746200.485 6 119532095.43806  22746199.265 3  22746207.734 3  93141915.45203
G21  23893093.059 6 125559048.49906  23893091.678 4  23893100.075 4  97838244.87004
G26  21538677.641 6 113186511.35706  21538676.913 6  21538686.058 6  88197321.49606  21538686.598 7  88197318.50007  21538681.627 5  84522412.67405
G28  23313380.721 5 122512640.14005  23313380.060 2  23313387.947 2  95464423.83302  23313388.390 6  95464423.83406                                  23313380.815 5 122512644.15505
G31  20777891.517 7 109188557.32707  20777890.883 7  20777894.701 7  85082001.39107  20777895.356 7  85082003.39707
R07  20287258.748 7 108599280.23407  20287258.235 7 108599281.24407  20287271.350 7  84466162.15907  20287271.490 7  84466164.15807
R08  22978032.030 6 123046324.53006  22978034.283 6 123046324.51106  22978049.357 6  95702764.04306  22978049.011 6  95702762.01106
R09  19531817.179 8 104298811.58608  19531817.597 7 104298815.58307  19531829.249 8  81121350.55208  19531829.194 8  81121349.55208  19531813.647 8  78313270.46808
R10  21400608.125 7 114077283.50707  21400607.830 7 114077283.50907
R22  22447725.712 7 119827483.00107  22447726.575 7 119827484.99907  22447740.811 7  93199210.35507  22447739.981 7  93199207.34407  22447725.791 6  90004685.19706
R23  22694874.491 6 121402272.75306  22694874.917 6 121402276.76506
S31  36911016.676 8 193968722.00408
S33  37043543.674 8 194665128.31108
S35  36962305.601 8 194238232.31508
> 2024 11 23 17 11  0.0000000  0 34
C11                                                                  26115461.840 6 135990059.86806  26115471.997 6 105156178.84106
C14                                                                  22969609.238 7 119608782.51607  22969612.456 8  92489108.48408  22969604.608 6  97191912.64806
C21  23650542.495 6 124284439.18906  23650545.956 5  92809819.24205  23650543.191 6 123154583.12706                                  23650539.688 6 100073169.54006  23650548.966 7  95230956.76507
C24  22937522.832 8 120537495.56608  22937523.850 5  90011770.15005  22937523.222 8 119441700.64008                                  22937521.314 6  97056160.84806  22937526.546 8  92359914.98708
C26  21993202.290 7 115575056.91707  21993204.387 5  86306058.82805  21993202.136 7 114524373.07707                                  21993201.544 6  93060432.53306  21993207.497 8  88557531.95908
C33  24990179.064 7 131324277.41807  24990209.585 4  98066947.54804  24990179.462 7 130130424.86107                                  24990193.525 5 105741690.57405  24990212.461 7 100625229.54907
C42  22074842.415 8 116004079.50908  22074855.311 6  86626472.35306  22074842.515 8 114949495.48108                                  22074849.983 6  93405913.15306  22074858.346 8  88886306.12908
C43  26181686.309 6 137585695.06106                                  26181687.232 6 136334911.55706                                                                  26181694.784 5 105422842.84705
E02  26209461.789 6 137731655.81106                                                                  26209470.866 7 105534680.06707
E07  23889366.008 7 125539466.27207  23889363.945 5 101898904.46705  23889370.789 5  93747021.60205  23889373.077 8  96192606.56208  23889371.861 8  94969812.65508
E08  25378938.432 6 133367221.61906                                  25378942.756 5  99592419.78105  25378944.952 7 102190492.45707
E13  25980767.048 7 136529850.78507                                  25980775.996 5 101954144.34205  25980777.936 7 104613824.11907  25980776.600 7 103283977.79907
E26  24935936.693 8 131039231.05708  24935935.783 5 106362999.05405  24935939.627 5  97853981.67205  24935942.448 8 100406703.77308  24935941.104 7  99130335.79307
E29  26654511.236 7 140070400.29707                                                                  26654519.667 7 107326701.13707
E33  26969993.821 6 141728274.74906                                                                  26970002.580 6 108597024.25206
G02  23079781.407 7 121285068.47707  23079780.142 5  23079785.265 5  94507856.46505
G03  20288609.989 8 106617364.34708  20288609.668 8  20288615.189 8  83078486.74408  20288616.183 7  83078486.75207  20288612.205 6  79616872.68506
G04  21960762.074 7 115404586.79107  21960761.395 5  21960767.842 5  89925671.48905  21960767.803 7  89925672.48807  21960768.782 5  86178773.51205  21960762.232 7 115404587.79307
G07  25693228.946 5 135018820.72915                                                  25693241.134 4 105209528.96914
G09  24232634.815 6 127343356.79606  24232634.163 4  24232643.483 4  99228625.46704  24232644.023 5  99228631.46905
G16  22728541.737 6 119439293.75106  22728540.544 3  22728548.344 3  93069602.53003
G21  23908119.866 7 125638013.92307  23908118.476 4  23908126.404 4  97899776.09404
G26  21533051.093 6 113156944.23906  21533050.342 6  21533059.214 6  88174282.23106  21533060.178 7  88174279.23507  21533055.071 5  84500333.39405
G28  23331288.332 5 122606745.43805  23331287.613 3  23331295.699 3  95537752.40603  23331296.078 6  95537752.39106                                  23331288.358 5 122606749.43805
G31  20789856.905 7 109251434.88907  20789856.266 7  20789859.874 7  85130996.84207  20789860.678 7  85130998.85407
R07  20280310.957 7 108562095.06507  20280312.004 7 108562096.04507  20280324.778 7  84437240.34907  20280325.071 7  84437242.33807
R08  22963109.540 6 122966405.91306  22963110.238 6 122966405.88106  22963124.914 6  95640605.13806  22963125.447 6  95640603.09606
R09  19526152.196 7 104268560.16807  19526152.207 7 104268564.17507  19526164.160 8  81097821.69108  19526164.023 8  81097820.68708  19526148.435 8  78290556.07208
R10  21378348.770 7 113958631.07707  21378348.782 7 113958631.07507
R22  22463367.753 7 119910981.70307  22463368.642 7 119910983.70907  22463382.569 7  93264153.64607  22463382.543 7  93264150.63607  22463367.866 6  90067402.48406
R23  22696587.760 6 121411438.15906  22696588.420 6 121411442.16406
S31  36910999.331 8 193968638.69208
S33  37043528.399 8 194665043.02708
S35  36962275.659 8 194238069.17508
> 2024 11 23 17 11 30.0000000  0 34
C11                                                                  26129613.999 6 136063746.57706  26129623.916 6 105213157.72406
C14                                                                  22959442.479 7 119555838.62307  22959445.102 8  92448168.90808  22959437.411 6  97148891.39706
C21  23659309.085 6 124330505.91606  23659312.264 5  92844219.59705  23659309.405 6 123200231.05306                                  23659306.227 5 100110262.09405  23659315.177 7  95266254.51807
C24  22921917.602 8 120455490.57208  22921918.748 5  89950532.75805  22921918.112 8 119360441.15508                                  22921915.954 6  96990130.92906  22921921.407 8  92297080.09308
C26  21993553.084 7 115576901.25207  21993555.524 5  86307436.04205  21993552.755 7 114526200.64807                                  21993552.762 6  93061917.55006  21993558.555 8  88558945.11108
C33  24976229.952 7 131250975.99607  24976261.118 4  98012209.55904  24976230.776 7 130057789.80507                                  24976245.217 5 105682668.67205  24976263.888 7 100569063.56107
C42  22070903.772 8 115983381.44008  22070916.543 6  86611016.02006  22070903.740 8 114928985.58208                                  22070911.304 6  93389247.18306  22070919.679 8  88870446.57108
C43  26193882.273 6 137649784.84606                                  26193883.637 6 136398418.69006                                                                  26193893.389 6 105471950.44206
E02  26210936.701 5 137739408.66705                                                                  26210945.805 6 105540620.52206
E07  23887965.474 7 125532106.64807  23887963.284 5 101892930.75905  23887970.041 5  93741525.77205  23887972.656 8  96186967.36508  23887971.385 8  94964245.14108
E08  25386413.360 6 133406503.93206                                  25386418.371 5  99621753.87405  25386420.088 7 102220591.82507
E13  25997200.863 7 136616210.42307                                  25997209.457 5 102018633.50005  25997211.909 7 104679995.62007  25997210.426 7 103349308.13107
E26  24941076.027 7 131066238.51407  24941074.821 5 106384920.60405  24941079.259 5  97874149.48105  24941081.786 8 100427397.70108  24941080.581 7  99150766.65607
E29  26645380.412 7 140022417.68207                                                                  26645388.724 7 107289935.18707
E33  26961650.207 6 141684426.27906                                                                  26961658.436 6 108563426.07706
G02  23093221.403 7 121355696.69807  23093220.125 5  23093225.714 5  94562891.30205
G03  20280592.558 8 106575233.10408  20280592.237 8  20280597.843 8  83045657.20308  20280598.807 7  83045657.20407  20280594.852 6  79585411.03406
G04  21951136.826 7 115354003.48807  21951136.138 5  21951142.138 5  89886255.93505  21951142.100 7  89886256.94907  21951143.307 5  86141000.28805  21951136.661 7 115354004.49607
G07  25675895.228 5 134927742.80905  25675894.562 4  25675908.930 4 105138576.83214  25675908.500 5 105138558.88815
G09  24218703.141 6 127270146.29806  24218702.466 5  24218712.389 5  99171578.32805  24218712.261 5  99171584.32605
G16  22710927.249 6 119346731.15806  22710926.056 3  22710934.001 3  92997475.89703
G21  23923156.197 7 125717029.27207  23923154.811 4  23923162.887 4  97961346.25204
G26  21527533.555 6 113127951.58306  21527532.791 6  21527542.636 6  88151690.59706  21527543.229 7  88151687.60007  21527538.356 5  84478683.07705
G28  23349220.961 5 122700980.92505  23349220.282 2  23349228.319 2  95611182.46702  23349228.693 6  95611182.44606                                  23349220.754 5 122700984.90905
G31  20801901.076 7 109314728.78207  20801900.442 7  20801904.457 7  85180316.70507  20801905.445 7  85180318.70407
R07  20273397.363 7 108525085.15207  20273398.178 7 108525086.15107  20273411.122 8  84408454.83908  20273411.126 7  84408456.85507
R08  22948175.576 6 122886435.48206  22948176.329 6 122886435.46606  22948191.627 6  95578405.94406  22948191.545 6  95578403.94406
R09  19520636.134 7 104239104.74007  19520636.354 7 104239108.73807  19520647.939 8  81074911.90508  19520647.920 8  81074910.92008  19520632.500 8  78268439.32008
R10  21356161.108 7 113840359.54407  21356161.029 7 113840359.54207
R22  22479084.318 7 119994870.40907  22479084.150 7 119994872.40107  22479097.693 7  93329400.22607  22479098.009 7  93329397.22707  22479083.434 6  90130412.70706
R23  22698439.599 6 121421342.29106  22698440.079 6 121421346.27106
S31  36910988.514 8 193968572.82508
S33  37043514.877 8 194664975.67608
S35  36962248.020 8 194237923.96408
> 2024 11 23 17 12  0.0000000  0 34
C11                                                                  26143754.940 6 136137376.20306  26143763.667 6 105270092.46406
C14                                                                  22949296.755 7 119503005.20207  22949298.933 8  92407314.75908  22949291.226 6  97105959.92006
C21  23668118.081 6 124376800.39006  23668121.517 5  92878790.02305  23668119.023 6 123246104.70206                                  23668115.727 6 100147538.07406  23668124.786 7  95301726.78807
C24  22906368.499 8 120373780.05308  22906369.843 5  89889515.27905  22906368.777 8 119279473.46508                                  22906366.792 6  96924338.13606  22906372.333 8  92234470.84208
C26  21994000.335 7 115579250.95407  21994002.868 5  86309190.63805  21993999.615 7 114528528.99607                                  21993999.997 6  93063809.45506  21994005.679 8  88560745.47708
C33  24962281.154 6 131177674.50406  24962312.168 4  97957471.50404  24962282.179 7 129985154.69307                                  24962296.014 5 105623646.74905  24962314.858 7 100512897.53407
C42  22067004.792 8 115962892.16708  22067017.467 6  86595715.58606  22067004.383 8 114908682.56508                                  22067012.259 6  93372749.31606  22067020.638 8  88854747.00008
C43  26206088.229 6 137713927.99406                                  26206088.964 6 136461978.66706                                                                  26206099.606 6 105521098.86106
E02  26212492.344 5 137747585.35105                                                                  26212501.765 7 105546885.75907
E07  23886578.643 7 125524818.41007  23886576.242 5 101887014.97505  23886583.212 6  93736083.28506  23886585.913 8  96181382.86708  23886584.430 8  94958731.63808
E08  25393894.949 6 133445819.41306                                  25393900.071 5  99651112.78905  25393901.609 7 102250716.59307
E13  26013657.261 7 136702688.00507                                  26013665.285 4 102083210.76704  26013668.097 7 104746257.47507  26013666.645 7 103414727.67307
E26  24946295.192 7 131093664.85907  24946294.161 5 106407182.16305  24946298.644 5  97894630.06805  24946301.010 8 100448412.60208  24946299.738 7  99171514.40607
E29  26636256.973 7 139974472.89507                                                                  26636265.118 7 107253198.20907
E33  26953379.718 6 141640965.41006                                                                  26953388.288 6 108530124.90506
G02  23106705.152 7 121426551.35407  23106703.856 5  23106708.596 5  94618102.57605
G03  20272661.207 8 106533554.31508  20272660.886 8  20272666.710 8  83013180.23308  20272667.585 7  83013180.23107  20272663.840 6  79554287.26706
G04  21941532.154 7 115303531.22307  21941531.457 5  21941536.959 5  89846926.90705  21941537.902 7  89846927.91407  21941538.311 5  86103309.95105  21941532.073 7 115303532.23207
G07  25658586.768 6 134836778.54916  25658586.590 2  25658597.862 2 105067658.56712  25658599.910 4
G09  24204777.001 6 127196963.10506  24204776.322 4  24204785.315 4  99114552.48704  24204786.954 5  99114558.51205
G16  22693358.011 6 119254404.77706  22693356.849 3  22693364.487 3  92925533.34103
G21  23938200.242 7 125796085.38207  23938198.856 4  23938206.884 4  98022948.14104
G26  21522124.685 6 113099528.36306  21522123.916 6  21522134.182 6  88129542.67706  21522134.329 7  88129539.68007  21522129.114 5  84457457.99105
G28  23367177.535 5 122795337.79105  23367176.874 2  23367183.426 2  95684707.09702  23367184.205 6  95684707.06206                                  23367176.520 5 122795341.77205
G31  20814023.099 7 109378429.48707  20814022.465 7  20814026.297 7  85229953.56007  20814027.150 7  85229955.56607
R07  20266515.826 7 108488245.35207  20266516.529 7 108488246.34407  20266529.130 7  84379801.66407  20266529.050 7  84379803.65907
R08  22933232.824 6 122806407.08406  22933231.679 6 122806407.10206  22933246.887 6  95516161.72906  22933246.317 6  95516159.73906
R09  19515268.145 7 104210439.72307  19515268.475 7 104210443.73207  19515279.935 8  81052616.92508  19515279.818 8  81052615.92808  19515264.312 8  78246916.07308
R10  21334044.539 7 113722466.36307  21334044.469 7 113722466.35907
R22  22494870.216 7 120079137.93007  22494870.570 7 120079139.94007  22494884.261 7  93394941.50707  22494884.260 7  93394938.51207  22494869.374 6  90193707.47206
R23  22700426.927 6 121431976.97306  22700427.622 6 121431980.96506
S31  36910983.264 8 193968518.13308
S33  37043501.699 8 194664920.06508
S35  36962222.755 8 194237790.01308
> 2024 11 23 17 12 30.0000000  0 34
C11                                                                  26157881.306 6 136210943.70206  26157892.086 6 105326979.16106
C14                                                                  22939171.391 7 119450280.81607  22939173.698 8  92366544.92808  22939165.868 6  97063117.03206
C21  23676970.725 6 124423320.24806  23676974.512 5  92913528.77305  23676970.711 6 123292201.63306                                  23676967.886 6 100184995.53606  23676977.150 7  95337371.75607
C24  22890875.321 8 120292363.14908  22890876.561 5  89828717.06005  22890875.880 8 119198796.71908                                  22890873.629 6  96858781.73506  22890879.086 8  92172086.55608
C26  21994542.978 7 115582102.88907  21994545.458 5  86311320.29105  21994543.067 7 114531354.99507                                  21994542.692 6  93066105.76406  21994548.519 8  88562930.67208
C33  24948331.892 6 131104371.03206  24948362.305 4  97902731.94004  24948333.257 7 129912517.63007                                  24948346.505 5 105564623.22405  24948365.603 7 100456730.01207
C42  22063145.398 8 115942610.16508  22063157.852 6  86580569.96006  22063145.034 8 114888584.95308                                  22063152.701 6  93356418.36806  22063161.122 8  88839206.25808
C43  26218303.543 6 137778119.24806                                  26218304.726 6 136525586.38006                                                                  26218315.706 6 105570284.20906
E02  26214128.961 5 137756183.21305                                                                  26214137.900 7 105553473.69707
E07  23885204.891 7 125517598.64507  23885202.492 5 101881154.76405  23885209.404 5  93730691.89105  23885212.055 8  96175850.82408  23885210.497 8  94953269.92008
E08  25401382.506 6 133485165.51506                                  25401387.013 5  99680494.55305  25401388.691 7 102280864.85207
E13  26030134.944 7 136789278.67307                                  26030143.046 4 102147872.43604  26030145.877 7 104812606.01407  26030144.315 7 103480232.79007
E26  24951593.366 7 131121506.37907  24951592.824 5 106429780.75405  24951596.559 5  97915420.74705  24951599.148 8 100469745.62008  24951597.860 7  99192576.24307
E29  26627140.066 7 139926562.84107                                                                  26627148.145 7 107216487.89907
E33  26945182.814 6 141597890.53306                                                                  26945191.240 6 108497119.48406
G02  23120229.935 7 121497626.18407  23120228.630 5  23120233.501 5  94673485.42605
G03  20264816.088 8 106492327.31108  20264815.767 8  20264821.449 8  82981055.31208  20264822.330 7  82981055.31807  20264818.733 6  79523500.88106
G04  21931948.103 7 115253167.18907  21931947.401 5  21931953.230 5  89807682.21105  21931953.612 7  89807683.20807  21931954.529 5  86065700.45205  21931947.996 7 115253168.19507
G07  25641300.691 6 134745946.50416  25641300.477 4  25641314.347 4 104996896.43014  25641313.580 5 104996895.47615
G09  24190854.772 6 127123804.41606  24190854.093 4  24190862.784 4  99057545.78204  24190865.235 5  99057551.76005
G16  22675833.926 6 119162315.21506  22675832.764 3  22675839.889 3  92853775.34203
G21  23953250.521 7 125875176.88207  23953249.131 4  23953257.815 4  98084577.64004
G26  21516824.592 6 113071673.49806  21516823.770 6  21516832.805 6  88107837.64806  21516833.374 7  88107834.65207  21516828.843 5  84436657.35805
G28  23385153.879 4 122889811.16704  23385153.155 1  23385161.039 1  95758322.51001  23385161.757 6  95758322.45006                                  23385153.040 4 122889815.15604
G31  20826221.300 7 109442531.75307  20826220.666 7  20826224.705 7  85279903.31607  20826225.514 7  85279905.31707
R07  20259665.286 7 108451574.82307  20259666.317 7 108451575.80307  20259678.921 8  84351280.12008  20259679.259 8  84351282.11108
R08  22918275.729 6 122726318.41706  22918275.841 6 122726318.44406  22918290.683 6  95453870.60706  22918290.620 6  95453868.60906
R09  19510048.233 7 104182563.73807  19510048.156 7 104182567.75307  19510059.665 8  81030935.62508  19510059.761 8  81030934.62208  19510044.099 8  78225985.25808
R10  21311999.663 7 113604952.74507  21311999.195 7 113604952.74507
R22  22510725.409 7 120163777.14807  22510726.443 7 120163779.14107  22510740.826 7  93460771.85007  22510739.966 7  93460768.85307  22510725.244 6  90257281.41306
R23  22702550.891 6 121443337.63106  22702551.929 6 121443341.62206
S31  36910967.989 8 193968472.54508  36910947.149 5 144846485.14015
S33  37043496.119 8 194664872.14008
S35  36962198.823 8 194237664.99808
> 2024 11 23 17 13  0.0000000  0 34
C11                                                                  26171999.083 6 136284450.94806  26172008.455 6 105383819.29406
C14                                                                  22929067.568 7 119397670.81807  22929070.844 8  92325863.54808  22929062.646 6  97020367.10306
C21  23685866.905 6 124470070.13306  23685870.684 5  92948439.25105  23685867.021 6 123338526.53406                                  23685864.273 5 100222638.19105  23685873.418 7  95373192.97107
C24  22875439.289 8 120211246.00308  22875440.479 5  89768142.67005  22875439.802 8 119118416.99608                                  22875437.603 6  96793466.70906  22875442.748 8  92109931.94908
C26  21995181.964 7 115585460.92807  21995184.277 5  86313827.84505  21995182.296 7 114534682.51007                                  21995181.494 6  93068809.61506  21995187.502 8  88565503.67508
C33  24934382.948 6 131031070.66806  24934414.006 4  97847994.73004  24934384.325 7 129839883.64507                                  24934398.014 5 105505602.21005  24934416.992 7 100400564.87107
C42  22059326.237 8 115922540.88908  22059338.874 6  86565583.15506  22059325.854 8 114868698.13108                                  22059333.610 6  93340258.69306  22059342.086 8  88823828.50608
C43  26230528.684 6 137842360.53706                                  26230530.350 6 136589243.65706                                                                  26230540.580 6 105619507.84406
E02  26215846.382 6 137765206.46906                                                                  26215855.389 7 105560387.58607
E07  23883844.769 7 125510451.45507  23883841.844 5 101875353.45705  23883849.106 5  93725354.66705  23883851.991 8  96170374.38308  23883850.453 8  94947863.09108
E08  25408876.391 6 133524546.67606                                  25408880.361 5  99709902.46205  25408883.119 7 102311039.94507
E13  26046634.860 7 136875984.62507                                  26046642.660 4 102212620.13704  26046645.486 7 104879042.86007  26046644.146 7 103545825.07907
E26  24956971.211 7 131149766.30807  24956970.044 5 106452718.91905  24956974.360 5  97936523.80605  24956976.831 8 100491399.24008  24956975.608 7  99213954.59607
E29  26618030.503 7 139878691.44807                                                                  26618038.478 7 107179807.20607
E33  26937060.363 6 141555207.03106                                                                  26937068.797 6 108464413.92606
G02  23133797.410 7 121568923.60507  23133796.078 5  23133801.133 5  94729041.72705
G03  20257058.138 8 106451558.45308  20257057.812 8  20257063.510 8  82949287.38708  20257064.178 7  82949287.38907  20257060.747 6  79493056.61606
G04  21922385.586 7 115202915.62407  21922384.898 5  21922391.233 5  89768525.13705  21922391.273 7  89768526.14207  21922392.073 5  86028174.91405  21922385.537 7 115202916.63007
G07  25624038.408 6 134655232.96906  25624037.966 4  25624050.888 4 104926211.08104  25624051.234 5 104926204.11715
G09  24176938.721 6 127050674.35706  24176938.037 5  24176947.868 5  99000561.43105  24176948.416 5  99000567.42605
G16  22658355.889 6 119070469.94006  22658354.691 3  22658362.535 3  92782207.69303
G21  23968308.724 7 125954305.68607  23968307.347 4  23968316.424 4  98146236.19004
G26  21511632.556 6 113044392.91106  21511631.702 6  21511641.193 6  88086580.09906  21511641.858 7  88086577.10407  21511637.388 5  84416285.54005
G28  23403154.675 4 122984403.08904  23403153.987 1  23403161.185 1  95832030.24201  23403162.284 5  95832030.22205                                  23403154.211 4 122984407.09804
G31  20838496.470 7 109507037.31607  20838495.831 7  20838499.528 7  85330167.32907  20838500.447 7  85330169.33307
R07  20252847.828 7 108415079.10407  20252848.447 7 108415080.09507  20252861.271 8  84322894.54008  20252860.998 8  84322896.54708
R08  22903308.917 6 122646174.37906  22903308.985 6 122646174.38506  22903324.095 6  95391536.44306  22903324.406 6  95391534.46606
R09  19504975.705 7 104155482.04207  19504976.204 7 104155486.04907  19504988.317 8  81009872.10508  19504988.105 8  81009871.10408  19504972.581 8  78205650.85708
R10  21290027.009 7 113487827.50007  21290026.984 7 113487827.49507
R22  22526650.880 7 120248787.86107  22526651.317 7 120248789.84807  22526666.152 7  93526891.12807  22526665.698 7  93526888.13707  22526650.454 6  90321134.39206
R23  22704811.850 6 121455427.58506  22704812.008 6 121455431.61006
S31  36910956.363 8 193968438.88308
S33  37043492.269 8 194664837.28808
S35  36962178.227 8 194237552.37408
> 2024 11 23 17 13 30.0000000  0 34
C11                                                                  26186101.300 6 136357885.10106  26186109.797 6 105440602.86706
C14                                                                  22918984.667 7 119345165.75607  22918987.689 8  92285263.31008  22918979.784 6  96977702.42706
C21  23694805.390 6 124517039.68106  23694809.096 5  92983513.75005  23694806.189 6 123385069.05306                                  23694802.294 5 100260457.72005  23694811.368 7  95409182.49907
C24  22860058.442 8 120130419.76908  22860059.428 5  89707785.53205  22860058.985 8 119038325.55008                                  22860056.555 6  96728385.91106  22860061.946 8  92048000.25508
C26  21995915.112 7 115589313.93207  21995917.848 5  86316705.06205  21995914.556 7 114538500.48607                                  21995914.725 6  93071911.99506  21995920.570 8  88568455.93708
C33  24920433.234 6 130957763.47806  24920463.909 4  97793252.40904  24920433.624 7 129767242.89507                                  24920447.981 5 105446575.72505  24920467.083 7 100344394.49207
C42  22055545.828 8 115902674.83208  22055558.068 6  86550748.10806  22055545.318 8 114849012.66808                                  22055553.175 6  93324262.62806  22055561.699 8  88808606.46308
C43  26242760.241 6 137906638.66606                                  26242761.588 6 136652937.45406                                                                  26242773.091 6 105668759.72906
E02  26217641.273 5 137774644.34905                                                                  26217651.606 7 105567619.19807
E07  23882496.502 7 125503365.96607  23882493.793 5 101869602.23205  23882501.103 5  93720063.53905  23882503.455 8  96164945.22008  23882502.134 8  94942502.94408
E08  25416375.019 6 133563952.32706                                  25416379.776 5  99739328.70605  25416382.159 7 102341233.81307
E13  26063153.864 7 136962792.97907                                  26063162.078 4 102277444.40404  26063164.589 7 104945558.18007  26063163.362 7 103611494.86407
E26  24962426.406 7 131178432.90307  24962425.276 4 106475987.18604  24962429.422 5  97957930.57905  24962431.891 8 100513364.46508  24962430.719 7  99235640.60007
E29  26608925.997 7 139830847.56107                                                                  26608934.165 7 107143147.60407
E33  26929010.728 6 141512905.28606                                                                  26929019.276 6 108432000.91006
G02  23147404.599 7 121640429.69307  23147403.267 5  23147408.499 5  94784760.61705
G03  20249385.440 8 106411239.10208  20249385.110 8  20249391.087 8  82917869.72208  20249391.752 7  82917869.71907  20249388.195 6  79462948.03006
G04  21912842.218 7 115152765.80007  21912841.539 5  21912848.035 5  89729447.35305  21912847.698 7  89729448.35107  21912848.488 5  85990725.39205  21912842.434 7 115152766.80107
G07  25606796.571 6 134564617.18116  25606796.008 4  25606809.689 4 104855606.01414  25606811.198 5 104855608.03605
G09  24163026.236 6 126977562.15906  24163025.530 5  24163035.501 5  98943590.97805  24163035.352 5  98943596.98505
G16  22640923.939 5 118978862.06805  22640922.746 2  22640930.402 2  92710825.05302
G21  23983371.665 7 126033458.49207  23983370.284 4  23983379.013 4  98207913.43204
G26  21506549.203 6 113017677.45106  21506548.349 6  21506557.651 6  88065762.88806  21506558.366 7  88065759.89707  21506553.403 5  84396335.72405
G28  23421175.119 4 123079100.54904  23421174.489 1  23421181.408 1  95905820.29001  23421182.575 5  95905820.40005                                  23421174.630 4 123079104.63204
G31  20850845.818 7 109571932.71507  20850845.179 7  20850848.884 7  85380735.11607  20850849.706 7  85380737.11907
R07  20246061.691 7 108378749.25307  20246061.924 7 108378750.24207  20246074.274 7  84294637.98207  20246074.488 7  84294639.97807
R08  22888330.078 6 122565964.62906  22888330.735 6 122565964.63906  22888345.282 6  95329151.15306  22888345.192 6  95329149.13906
R09  19500051.298 7 104129185.27707  19500051.799 7 104129189.27907  19500063.635 8  80989419.08308  19500063.603 8  80989418.08108  19500048.062 8  78185905.81208
R10  21268125.886 7 113371082.89607  21268125.746 7 113371082.89407
R22  22542644.258 7 120334154.76307  22542643.981 7 120334156.76607  22542658.266 7  93593287.47507  22542658.248 7  93593284.45507  22542643.382 6  90385254.91006
R23  22707205.451 6 121468234.06306  22707206.249 6 121468238.06606
S31  36910957.213 8 193968407.59808
S33  37043483.142 8 194664804.98408
S35  36962155.721 8 194237441.53408
> 2024 11 23 17 14  0.0000000  0 34
C11                                                                  26200190.684 6 136431252.62606  26200201.886 6 105497334.94306
C14                                                                  22908923.844 7 119292775.83607  22908926.710 8  92244752.10908  22908919.042 6  96935131.34806
C21  23703786.934 6 124564238.26306  23703790.720 5  93018759.32005  23703787.534 6 123431838.57106                                  23703784.166 5 100298461.66405  23703793.015 7  95445347.56007
C24  22844735.216 8 120049895.42208  22844735.861 5  89647653.78205  22844735.683 8 118958533.24108                                  22844733.191 6  96663548.18406  22844738.789 8  91986299.86708
C26  21996744.258 7 115593670.54007  21996746.902 5  86319958.33105  21996744.038 7 114542817.48707                                  21996743.976 6  93075419.88206  21996749.805 8  88571794.07208
C33  24906484.013 6 130884459.43306  24906514.175 4  97738512.50704  24906484.061 7 129694605.23407                                  24906498.363 5 105387551.74405  24906517.645 7 100288226.53907
C42  22051806.046 8 115883022.28608  22051818.509 6  86536072.50706  22051805.780 8 114829538.79108                                  22051813.778 6  93308438.50506  22051821.899 8  88793548.01708
C43  26255000.972 6 137970960.31306                                  26255002.216 6 136716674.31506                                                                  26255011.820 5 105718044.95505
E02  26219518.479 5 137784505.94705                                                                  26219528.225 7 105575175.49407
E07  23881161.719 7 125496351.10407  23881159.207 5 101863908.32305  23881166.162 5  93714825.13505  23881168.617 8  96159570.18408  23881167.323 8  94937196.22908
E08  25423880.109 6 133603391.76106                                  25423884.786 5  99768780.14405  25423887.065 7 102371453.55607
E13  26079693.970 7 137049710.71607                                  26079701.791 4 102342350.31404  26079704.571 7 105012157.30907  26079703.482 7 103677247.38207
E26  24967960.334 7 131207514.15907  24967959.802 5 106499592.05205  24967963.463 5  97979647.02205  24967966.031 8 100535647.42908  24967964.826 7  99257640.29907
E29  26599828.462 7 139783039.85707                                                                  26599836.499 7 107106515.72407
E33  26921035.454 6 141470995.44706                                                                  26921044.175 7 108399888.15307
G02  23161053.154 7 121712151.12507  23161051.826 5  23161056.728 5  94840647.30205
G03  20241800.450 8 106371380.36508  20241800.120 8  20241806.035 8  82886810.97908  20241806.642 7  82886810.98207  20241802.986 6  79433183.39206
G04  21903320.096 7 115102726.74007  21903319.426 5  21903325.679 5  89690455.88205  21903325.884 7  89690456.89307  21903326.868 5  85953358.57105  21903320.177 7 115102727.74207
G07  25589580.549 6 134474154.37216  25589579.901 4  25589593.669 4 104785115.34214  25589592.467 5
G09  24149118.040 6 126904476.77006  24149117.343 5  24149126.680 5  98886641.45105  24149128.063 5  98886647.46905
G16  22623538.696 5 118887504.04605  22623537.471 2  22623545.587 2  92639637.11202
G21  23998440.060 7 126112641.99107  23998438.683 4  23998447.174 4  98269614.61304
G26  21501574.481 6 112991537.79206  21501573.610 6  21501583.682 6  88045394.37206  21501583.980 7  88045391.36607  21501579.247 5  84376815.89605
G28  23439216.239 4 123173910.84004                                                  23439224.700 5  95979698.22105                                  23439216.126 4 123173914.78904
G31  20863270.383 7 109637224.44507  20863269.749 7  20863273.784 7  85431611.72707  20863274.437 7  85431613.72507
R07  20239307.935 7 108342596.08207  20239307.963 7 108342597.09707  20239320.559 7  84266518.86607  20239320.778 7  84266520.85907
R08  22873341.215 6 122485698.88806  22873341.530 6 122485698.90206  22873356.018 6  95266722.33706  22873355.517 6  95266720.32806
R09  19495276.139 7 104103683.25507  19495276.432 7 104103687.25407  19495287.678 8  80969584.18208  19495287.865 8  80969583.17108  19495272.197 8  78166757.49908
R10  21246299.144 7 113254733.72407  21246298.580 7 113254733.72207
R22  22558704.202 7 120419882.61707  22558704.082 7 120419884.62807  22558718.448 7  93659964.52907  22558717.150 7  93659961.51407  22558703.113 6  90449646.54806
R23  22709734.627 6 121481765.09106  22709735.890 6 121481769.09306
S31  36910952.567 8 193968387.37408  36910931.064 5 144846421.41415
S33  37043478.867 8 194664782.97708
S35  36962137.343 8 194237343.29108
> 2024 11 23 17 14 30.0000000  0 36
C11                                                                  26214263.801 6 136504538.55306  26214277.261 7 105554003.91007
C14                                                                  22898882.985 7 119240489.50507  22898885.657 8  92204321.01908  22898877.784 6  96892644.42006
C21  23712809.906 6 124611653.47006  23712813.802 5  93054166.67605  23712810.233 6 123478822.72006                                  23712807.361 5 100336640.06405  23712816.324 7  95481678.57307
C24  22829467.296 8 119969661.92808  22829468.130 5  89587739.22905  22829467.652 8 118879029.16008                                  22829465.209 6  96598944.66406  22829470.946 8  91924822.33808
C26  21997666.682 7 115598517.46307  21997669.231 5  86323577.73505  21997667.043 7 114547620.33607                                  21997666.484 6  93079322.55906  21997672.254 8  88575507.90208
C33  24892532.856 7 130811146.44207  24892563.555 4  97683765.86804  24892533.359 7 129621958.73407                                  24892547.357 5 105328520.57405  24892566.482 7 100232051.74407
C42  22048104.772 8 115863571.63408  22048117.568 6  86521547.67206  22048104.530 8 114810264.95508                                  22048112.144 6  93292776.92606  22048120.532 8  88778644.26108
C43  26267245.508 6 138035310.11006                                  26267247.492 6 136780439.14206                                                                  26267259.131 6 105767351.77106
E02  26221473.100 5 137794778.34805                                                                  26221483.344 7 105583046.53307
E07  23879837.700 7 125489393.85907  23879835.061 5 101858261.18205  23879842.063 5  93709629.75305  23879844.806 8  96154239.28808  23879843.415 8  94931933.09708
E08  25431389.107 6 133642852.29906                                  25431394.829 5  99798247.37205  25431396.239 7 102401689.49607
E13  26096252.065 7 137136722.86607                                  26096260.667 4 102407326.69704  26096262.549 7 105078828.79607  26096261.565 7 103743071.33307
E26  24973570.687 7 131236996.22407  24973569.504 5 106523522.25605  24973574.194 5  98001662.77505  24973576.340 8 100558237.50908  24973575.103 7  99279943.21107
E27  27600440.366 6 145041294.38816                                                                  27600455.915 6 111135597.96016
E29  26590735.283 7 139735255.17607                                                                  26590743.477 7 107069901.50707
E30  25629410.088 5 134683455.59815                                                                  25629418.321 7 103199046.89217
E33  26913132.824 6 141429465.69006                                                                  26913141.193 7 108368066.64407
G02  23174739.652 7 121784071.84507  23174738.324 5  23174743.291 5  94896689.27505
G03  20234301.299 8 106331971.49208  20234300.969 8  20234306.672 8  82856102.78008  20234307.521 7  82856102.78307  20234303.997 6  79403754.71906
G04  21893816.637 7 115052785.58307  21893815.967 5  21893822.117 5  89651540.69805  21893822.532 7  89651541.69907  21893823.241 5  85916064.83005  21893816.539 7 115052786.58607
G07  25572384.610 6 134383785.00816  25572384.204 2  25572397.938 2 104714702.16712  25572394.579 3
G09  24135213.041 6 126831405.22806  24135212.380 5  24135221.155 5  98829702.71505  24135222.702 5  98829708.73605
G16  22606199.546 5 118796386.35005  22606198.375 2  22606206.160 2  92568636.47302
G21  24013511.206 7 126191840.72207  24013509.843 4  24013518.523 4  98331327.65604
G26  21496707.209 6 112965962.61106  21496706.329 6  21496716.742 6  88025465.69806  21496717.163 7  88025462.71007  21496712.838 5  84357717.59705
G28  23457274.025 3                                                                  23457285.009 4  96053652.19504                                  23457275.915 3 123268822.54603
G31  20875767.468 7 109702897.16807  20875766.825 7  20875771.052 7  85482785.21307  20875771.622 7  85482787.21807
R07  20232584.744 7 108306608.35007  20232585.026 7 108306609.35907  20232597.966 8  84238528.38908  20232597.823 8  84238530.39908
R08  22858338.145 6 122405364.57806  22858338.860 6 122405364.61406  22858354.002 6  95204240.19506  22858354.368 6  95204238.19106
R09  19490646.668 7 104078963.98107  19490646.881 7 104078967.98707  19490658.959 8  80950358.09308  19490658.939 8  80950357.08508  19490643.137 8  78148196.93508
R10  21224543.663 7 113138770.03807  21224543.506 7 113138770.04307
R22  22574828.418 7 120505954.04207  22574828.015 7 120505956.03907  22574842.108 7  93726908.77707  22574841.713 7  93726905.78607  22574827.142 6  90514296.21506
R23  22712398.139 6 121496005.68906  22712398.361 6 121496009.69706
S31  36910950.858 8 193968365.64908
S33  37043471.672 8 194664759.52508
S35  36962118.549 8 194237241.85808
> 2024 11 23 17 15  0.0000000  0 36
C11                                                                  26228324.623 5 136577754.60705  26228336.101 6 105610618.85606
C14                                                                  22888864.657 7 119188321.88907  22888867.375 8  92163981.72308  22888859.453 6  96850253.95506
C21  23721876.439 6 124659299.68706  23721880.848 5  93089746.52305  23721877.310 6 123526035.77706                                  23721873.712 5 100375004.46105  23721883.428 7  95518186.60707
C24  22814257.684 8 119889735.24308  22814258.447 5  89528053.82605  22814257.953 8 118799829.08308                                  22814255.718 6  96534588.17106  22814261.366 8  91863579.89708
C26  21998684.903 7 115603868.29807  21998687.490 5  86327573.48105  21998685.237 7 114552922.53107                                  21998684.374 6  93083631.00106  21998690.578 8  88579607.87108
C33  24878582.836 7 130737839.52907  24878613.502 5  97629023.79305  24878583.246 7 129549318.25407                                  24878597.178 5 105269494.28305  24878616.524 7 100175881.60007
C42  22044444.704 8 115844338.16308  22044457.414 6  86507184.99306  22044444.357 8 114791206.33908                                  22044452.204 6  93277290.23006  22044460.506 8  88763906.91608
C43  26279498.762 6 138099699.81306                                  26279499.490 6 136844243.43906                                                                  26279510.123 5 105816689.11905
E02  26223509.117 6 137805475.62406                                                                  26223518.754 7 105591243.09907
E07  23878527.402 7 125482508.16607  23878524.216 5 101852672.13505  23878532.108 5  93704487.85605  23878534.563 8  96148963.22308  23878533.126 8  94926724.10308
E08  25438905.166 6 133682348.24106                                  25438910.309 5  99827741.00105  25438911.756 7 102431952.57507
E13  26112830.170 7 137223841.41307                                  26112838.958 4 102472382.60404  26112840.891 7 105145581.78707  26112839.865 7 103808975.76007
E26  24979259.731 7 131266892.05507  24979258.199 5 106547788.18105  24979262.987 5  98023987.50205  24979265.460 8 100581144.62408  24979264.116 7  99302559.13107
E27  27583847.089 6 144954099.92306                                                                  27583863.109 6 111068786.77906
E29  26581649.125 7 139687507.18007                                                                  26581657.468 7 107033315.39707
E30  25618075.227 5 134623892.05305                                  25618081.131 4 100530859.91814  25618083.867 7 103153407.34707
E33  26905304.990 6 141388331.29706                                                                  26905313.700 6 108336548.04606
G02  23188465.457 7 121856203.14807  23188464.134 5  23188470.010 5  94952895.33505
G03  20226890.575 8 106293028.57208  20226890.240 8  20226896.049 8  82825757.66908  20226896.902 7  82825757.67707  20226893.137 6  79374673.97706
G04  21884334.407 7 115002956.41907  21884333.750 5  21884339.782 5  89612712.77305  21884340.119 7  89612713.77307  21884341.086 5  85878854.76105  21884334.560 7 115002957.41807
G07  25555213.710 6 134293553.17506  25555213.138 4  25555226.496 4 104644392.35204  25555227.182 4 104644378.29014
G09  24121313.092 6 126758361.50006  24121312.458 5  24121322.265 5  98772785.60705  24121322.329 6  98772791.62106
G16  22588908.788 6 118705526.61906  22588907.657 3  22588916.278 3  92497836.82203
G21  24028587.550 7 126271066.57607  24028586.182 4  24028594.648 4  98393061.84904
G26  21491951.020 6 112940967.59106  21491950.149 6  21491960.187 6  88005989.07806  21491960.563 7  88005986.07607  21491956.194 5  84339052.48105
G28  23475358.787 3                                                                  23475367.006 5  96127691.52405                                  23475356.268 3
G31  20888339.390 7 109768962.34507  20888338.756 7  20888342.796 7  85534264.50707  20888343.161 7  85534266.51007
R07  20225895.974 7 108270801.69107  20225896.341 7 108270802.70607  20225909.009 8  84210678.75008  20225908.966 8  84210680.75608
R08  22843326.712 6 122324976.67806  22843326.541 6 122324976.66006  22843342.255 6  95141716.29606  22843343.140 6  95141714.28406
R09  19486167.390 7 104055043.05107  19486167.586 7 104055047.05007  19486178.970 8  80931752.91508  19486178.952 8  80931751.92408  19486163.528 8  78130235.77608
R10  21202865.064 7 113023210.83107  21202864.838 7 113023210.82507
R22  22591017.748 7 120592378.80707  22591018.030 7 120592380.80107  22591032.190 7  93794127.88207  22591032.863 7  93794124.88407  22591017.551 6  90579211.30606
R23  22715195.089 6 121510968.63506  22715194.874 6 121510972.63406
S31  36910947.648 8 193968355.72508
S33  37043471.847 8 194664748.03708
S35  36962100.510 8 194237153.71308
> 2024 11 23 17 15 30.0000000  0 36
C11                                                                  26242377.670 6 136650923.75706  26242387.329 6 105667197.53906
C14                                                                  22878874.524 7 119136299.74007  22878876.851 8  92123754.91208  22878869.030 6  96807981.72306
C21  23730992.358 6 124707202.98106  23730996.377 5  93125518.36605  23730993.154 6 123573503.60406                                  23730989.904 5 100413575.90905  23730999.134 7  95554891.63807
C24  22799111.717 8 119810142.95608  22799112.234 5  89468618.11005  22799112.048 8 118720960.36108                                  22799109.772 6  96470500.94006  22799115.221 8  91802593.66508
C26  21999803.831 7 115609748.35507  21999806.313 5  86331964.39905  21999803.782 7 114558749.13607                                  21999803.402 6  93088365.57706  21999809.450 8  88584113.34508
C33  24864639.613 6 130664565.21406  24864669.821 4  97574306.09704  24864640.065 7 129476710.07407                                  24864653.642 5 105210494.27005  24864672.966 7 100119736.44207
