     2.11           OBSERVATION DATA    M (MIXED)           RINEX VERSION / TYPE
teqc  2019Feb25     NOAA/NOS/NGS/CORS   20241124 12:29:04UTCPGM / RUN BY / DATE
Linux 2.4.21-27.ELsmp|Opteron|gcc|Linux 64|=+               COMMENT
teqc  2019Feb25     NOAA/NOS/NGS/CORS   20241124 12:28:49UTCCOMMENT
teqc  2016Nov7      SOPAC               20241124 12:05:58UTCCOMMENT
      ------------------------------------------------      COMMENT
      SOPAC - Scripps Orbit and Permanent Array Center      COMMENT
    IGPP - Institute of Geophysics and Planetary Physics    COMMENT
         SIO - Scripps Institution of Oceanography          COMMENT
         UCSD - University of California, San Diego         COMMENT
              email: archive@gpsmail.ucsd.edu               COMMENT
                   ftp://garner.ucsd.edu                    COMMENT
                   http://sopac.ucsd.edu                    COMMENT
     The header coordinates are CSRC Epoch 2017.5 ITRF:     COMMENT
     (http://sopac-csrc.ucsd.edu/index.php/epoch2017/)      COMMENT
                   ---------------------                    COMMENT
Linux 2.4.20-8|Pentium IV|gcc -static|Linux|486/DX+         COMMENT
     2              OBSERVATION DATA                        COMMENT
Geodetics RTD 3.5 EV                    20241122 23:59:42UTCCOMMENT
SIO5                                                        MARKER NAME
40460M006                                                   MARKER NUMBER
Anne Sullivan       SOPAC                                   OBSERVER / AGENCY
618-01142           TPS NET-G3A         4.7p6               REC # / TYPE / VERS
383-1917            TPSCR.G3        SCIT                    ANT # / TYPE
 -2456114.4350 -4768907.0740  3439232.5510                  APPROX POSITION XYZ
        0.0083        0.0000        0.0000                  ANTENNA: DELTA H/E/N
     1     1                                                WAVELENGTH FACT L1/2
     5    L1    L2    P1    P2    C1                        # / TYPES OF OBSERV
    30.0000                                                 INTERVAL
teqc.e windowed: start @ 2024 Nov 23 00:00:00.000           COMMENT
teqc.e windowed: delta = 86400.000 sec                      COMMENT
teqc.e edited: all SBAS satellites excluded                 COMMENT
teqc.e edited: all QZSS satellites excluded                 COMMENT
    18                                                      LEAP SECONDS
Forced Modulo Decimation to 30 seconds                      COMMENT
  2024    11    23     0     0    0.0000000     GPS         TIME OF FIRST OBS
                                                            END OF HEADER
 24 11 23  0  0  0.0000000  0 17G17G22G19G14G07G30G02G21G15G13R20R22
                                R11R01R12R10R21
 142433950.969 9 110987560.501 8                  27104249.920    27104248.760
 145264542.063 9 113193199.932 6                  27642892.196    27642891.216
 154160300.346 7 120124943.190 4                  29335712.846    29335710.586
 142289775.455 8 110875198.675 6                  27076816.560    27076814.860
 150547927.137 8 117310090.126 6                  28648309.530    28648306.510
 142310535.031 9 110891388.975 9                  27080774.980    27080771.800
 158272361.903 6 123329131.037 4                  30118208.560    30118206.120
 160336956.189 6 124937867.414 2                  30511098.558    30511093.458
 158245429.381 6 123308171.211 4                  30113094.780    30113088.240
 146071293.256 8 113821817.488 6                  27796416.176    27796414.176
 159119629.273 6 123759729.489 6                  29756180.524    29756174.804
 152354343.749 8 118497882.428 6                  28541082.632    28541080.112
 145734515.694 9 113349092.344 8                  27272203.860    27272203.240
 149745279.326 8 116468593.507 5                  28012933.256    28012929.656
 148459036.190 9 115468206.828 7                  27791813.816    27791810.416
 162836695.879 6                                                  30547733.300
 146217428.045 9 113724697.431 7                  27324187.480    27324185.920
 24 11 23  0  0 30.0000000  0 17G17G22G19G14G07G30G02G21G15G13R20R22
                                R11R01R12R10R21
 142152731.608 9 110768428.610 8                  27050735.620    27050734.500
 145020298.656 9 113002880.426 6                  27596414.176    27596413.756
 153828115.775 7 119866098.279 4                  29272499.846    29272497.666
 142063195.221 9 110698642.661 6                  27033699.700    27033698.220
 150373078.625 8 117173844.497 6                  28615036.730    28615034.070
 142091913.196 9 110721034.312 9                  27039172.540    27039169.380
 158035798.058 7 123144795.673 4                  30073191.640    30073189.380
 160136420.980 6 124781606.269 2                  30472937.778    30472932.258
 157952766.214 6 123080122.172 4                  30057402.800    30057396.180
 145803930.472 9 113613482.902 6                  27745538.756    27745537.256
 158964080.630 5 123638747.161 6                  29727092.664    29727084.764
 152002913.708 8 118224548.153 6                  28475247.472    28475245.432
 145524754.946 9 113185945.123 8                  27232949.720    27232949.860
 149601237.217 8 116356560.645 5                  27985986.436    27985982.916
 148177359.946 9 115249125.396 7                  27739083.036    27739080.076
 162669679.285 6                                                  30516400.460
 145959890.062 9 113524390.165 7                  27276060.260    27276059.060
 24 11 23  0  1  0.0000000  0 17G17G22G19G14G07G30G02G21G15G13R20R22
                                R11R01R12R10R21
 142160239.543 9 110774279.024 9                  27052164.240    27052163.060
 145064495.588 8 113037319.623 6                  27604824.436    27604823.876
 153784356.278 7 119832000.176 4                  29264172.506    29264170.446
 142125034.158 9 110746828.860 6                  27045467.240    27045465.640
 150486776.659 8 117262440.346 6                  28636672.870    28636670.090
 142161893.384 9 110775564.347 9                  27052489.360    27052486.240
 158087935.761 7 123185422.555 4                  30083112.880    30083110.980
 160224620.081 6 124850332.924 2                  30489722.058    30489717.038
 157948819.648 6 123077047.100 4                  30056651.600    30056645.100
 145825355.346 9 113630177.659 5                  27749615.596    27749613.716
 159102399.574 5 123746328.537 5                  29752958.184    29752951.324
 151944499.911 8 118179115.408 6                  28464304.732    28464302.092
 145608193.614 9 113250841.889 8                  27248564.320    27248564.380
 149750808.768 8 116472893.980 5                  28013968.436    28013962.776
 148188730.815 9 115257969.492 7                  27741211.476    27741208.936
 162795050.221 6                                                  30539919.020
 145996629.523 9 113552965.355 7                  27282925.860    27282924.620
 24 11 23  0  1 30.0000000  0 16G17G22G19G14G07G30G02G21G15G13R22R11
                                R01R12R10R21
 142201556.810 9 110806474.371 8                  27060026.500    27060025.400
 145142212.467 8 113097878.261 6                  27619613.456    27619612.756
 153774104.970 7 119824012.348 4                  29262221.686    29262219.146
 142220373.000 8 110821118.892 6                  27063609.580    27063608.180
 150634103.060 8 117377240.110 6                  28664708.230    28664705.350
 142265557.992 9 110856341.974 9                  27072216.020    27072213.080
 158173856.883 6 123252374.178 4                  30099463.280    30099461.100
 160346634.540 6 124945409.185 2                  30512939.798    30512935.558
 157978672.661 6 123100309.360 4                  30062332.420    30062326.040
 145880649.896 8 113673264.374 6                  27760137.656    27760136.056
 151920159.952 8 118160184.540 6                  28459744.752    28459741.912
 145725612.259 9 113342167.520 8                  27270537.480    27270537.820
 149934679.529 8 116615904.447 5                  28048363.816    28048360.536
 148234020.049 9 115293194.543 7                  27749689.456    27749686.896
 162954227.265 6                                                  30569780.600
 146068064.230 9 113608525.743 7                  27296275.120    27296274.060
 24 11 23  0  2  0.0000000  0 16G17G22G19G14G07G30G02G21G15G13R22R11
                                R01R12R10R21
 142201056.165 9 110806084.334 8                  27059931.220    27059930.080
 145177820.370 9 113125624.707 6                  27626389.356    27626388.736
 153721735.628 8 119783205.257 4                  29252255.706    29252253.806
 142273582.731 8 110862581.050 6                  27073735.060    27073733.660
 150739429.232 8 117459312.417 6                  28684751.190    28684748.670
 142327279.621 9 110904436.758 9                  27083961.260    27083958.180
 158217934.095 7 123286720.161 4                  30107850.860    30107849.100
 160426835.583 6 125007903.572 2                  30528201.058    30528197.118
 157966698.248 6 123090978.835 4                  30060053.700    30060047.720
 145894187.504 9 113683813.214 6                  27762713.896    27762712.036
 151853075.132 8 118108007.638 6                  28447177.912    28447174.412
 145800107.517 9 113400108.300 7                  27284478.420    27284478.020
 150075913.623 8 116725753.068 5                  28074785.636    28074780.956
 148236350.255 9 115295007.009 7                  27750125.776    27750123.556
 163070496.793 5                                                  30591591.976
 146097183.689 9 113631174.266 7                  27301716.560    27301715.640
 24 11 23  0  2 30.0000000  0 16G17G22G19G14G07G30G02G21G15G13R22R11
                                R01R12R10R21
 142303237.101 9 110885705.918 8                  27079375.520    27079374.440
 145315816.763 9 113233154.387 6                  27652649.016    27652648.516
 153771748.998 7 119822176.905 4                  29261772.706    29261770.886
 142429160.909 8 110983810.828 6                  27103340.520    27103338.840
 150947253.475 8 117621253.359 6                  28724298.730    28724296.070
 142491557.382 9 111032445.414 9                  27115222.320    27115219.420
 158364666.701 7 123401057.371 4                  30135772.960    30135771.300
 160609720.602 6 125150411.434 2                  30563003.618    30562998.658
 158057396.808 6 123161653.211 4                  30077312.760    30077306.200
 146010467.744 9 113774421.243 6                  27784841.276    27784839.316
 151890031.598 8 118136751.739 6                  28454100.092    28454097.612
 145978615.889 9 113538948.172 8                  27317883.600    27317883.340
 150321494.084 8 116916759.975 5                  28120727.236    28120722.616
 148342606.159 9 115377650.577 7                  27770017.196    27770014.076
 163290433.084 5                                                  30632851.696
 146231131.799 9 113735356.179 7                  27326748.180    27326746.920
 24 11 23  0  3  0.0000000  0 16G17G22G19G14G07G30G02G21G15G13R22R11
                                R01R12R10R21
 142063959.978 8 110699256.288 8                  27033842.440    27033841.420
 145112059.757 8 113074382.718 6                  27613875.556    27613874.916
 153480006.421 7 119594845.211 4                  29206255.886    29206254.186
 142242966.771 9 110838724.519 6                  27067908.940    27067907.340
 150813436.117 8 117516980.070 6                  28698834.190    28698831.730
 142314252.175 9 110894285.522 9                  27081482.240    27081479.240
 158169915.273 6 123249303.131 4                  30098713.000    30098710.200
 160451149.550 6 125026849.651 2                  30532828.958    30532823.138
 157806629.545 6 122966250.332 4                  30029593.120    30029586.140
 145785351.704 8 113599006.196 6                  27742002.976    27742001.036
 151579875.149 9 117895519.136 6                  28395997.072    28395994.812
 145809504.357 9 113407416.993 7                  27286236.740    27286236.980
 150219625.429 8 116837528.699 5                  28101669.836    28101665.916
 148101312.401 9 115189977.731 7                  27724846.436    27724843.196
 163163514.430 6                                                  30609042.796
 146017641.807 9 113569308.470 7                  27286852.320    27286851.100
 24 11 23  0  3 30.0000000  0 16G17G22G19G14G07G30G02G21G15G13R22R11
                                R01R12R10R21
 142099151.579 8 110726678.392 9                  27040539.300    27040538.080
 145182474.360 8 113129251.273 6                  27627274.916    27627274.256
 153462436.496 7 119581154.541 4                  29202912.546    29202909.726
 142330924.684 8 110907263.188 6                  27084646.620    27084645.060
 150953901.410 8 117626433.515 6                  28725563.750    28725560.770
 142411289.829 9 110969899.285 9                  27099947.860    27099944.900
 158249606.322 6 123311400.165 4                  30113877.860    30113875.160
 160567046.246 6 125117158.845 2                  30554883.878    30554877.618
 157830324.003 6 122984713.712 4                  30034101.720    30034095.220
 145834765.943 9 113637510.849 6                  27751406.076    27751404.776
 151548268.974 8 117870936.756 6                  28390076.332    28390073.952
 145919090.172 9 113492650.431 8                  27306744.620    27306744.120
 150396838.421 8 116975360.897 5                  28134820.436    28134816.856
 148138566.644 9 115218953.343 7                  27731820.496    27731817.656
 163314518.211 6                                                  30637370.916
 146083912.026 9 113620852.028 7                  27299236.440    27299235.340
 24 11 23  0  4  0.0000000  0 16G17G22G19G14G07G30G02G21G15G13R22R11
                                R01R12R10R21
 142022671.530 9 110667083.626 8                  27025985.480    27025984.200
 145140918.399 9 113096870.037 6                  27619366.956    27619366.476
 153332899.830 7 119480217.043 4                  29178262.066    29178260.446
 142306892.969 8 110888537.204 6                  27080073.380    27080071.940
 150982508.746 7 117648724.919 6                  28731007.770    28731005.130
 142396530.258 9 110958398.328 9                  27097139.180    27097136.240
 158217599.362 7 123286459.783 4                  30107786.840    30107784.540
 160571269.274 6 125120449.589 3                  30555686.598    30555681.858
 157742340.713 6 122916155.480 4                  30017358.800    30017352.180
 145772570.297 9 113589046.762 6                  27739570.496    27739569.036
 151402974.501 9 117757930.117 6                  28362857.012    28362855.052
 145914718.397 9 113489250.183 7                  27305926.520    27305925.820
 150460335.712 8 117024747.555 5                  28146700.736    28146695.316
 148061850.158 9 115159285.046 7                  27717458.696    27717456.016
 163351754.774 6                                                  30644355.416
 146036736.102 9 113584159.692 7                  27290420.260    27290419.360
 24 11 23  0  4 30.0000000  0 16G17G22G19G14G07G30G02G21G15G13R22R11
                                R01R12R10R21
 142060867.539 9 110696846.831 8                  27033253.800    27033252.560
 145213736.774 9 113153611.661 6                  27633223.936    27633223.336
 153317744.755 7 119468408.063 4                  29175377.746    29175375.866
 142397216.896 8 110958919.523 6                  27097261.560    27097260.000
 151125603.411 7 117760227.223 6                  28758237.510    28758234.970
 142496320.223 9 111036156.751 9                  27116128.660    27116125.560
 158300241.230 7 123350856.148 4                  30123512.680    30123511.280
 160690164.307 6 125213095.147 2                  30578311.878    30578306.298
 157769027.496 6 122936950.544 4                  30022436.780    30022430.220
 145825112.065 9 113629988.449 6                  27749569.076    27749567.356
 151373919.229 9 117735331.765 6                  28357413.812    28357411.752
 146026553.865 9 113576233.349 8                  27326854.860    27326854.060
 150640357.915 8 117164764.711 5                  28180377.096    28180372.216
 148101247.436 9 115189927.462 7                  27724833.916    27724831.416
 163504823.530 6                                                  30673070.376
 146106603.662 9 113638501.190 7                  27303476.540    27303476.040
 24 11 23  0  5  0.0000000  0 16G17G22G19G14G07G30G02G21G15G13R22R11
                                R01R12R10R21
 141881479.549 8 110557064.059 9                  26999117.300    26999116.200
 145068667.915 9 113040571.026 6                  27605618.196    27605617.576
 153084712.566 7 119286824.699 4                  29131033.186    29131031.606
 142269635.476 8 110859505.468 6                  27072983.640    27072982.200
 151050925.726 8 117702036.784 6                  28744026.830    28744024.330
 142378400.304 9 110944271.108 9                  27093689.240    27093685.960
 158165272.273 7 123245685.626 4                  30097829.100    30097827.280
 160591470.208 6 125136190.735 2                  30559529.678    30559525.478
 157578125.263 6 122788195.727 4                  29986109.140    29986102.820
 145660131.950 9 113501432.560 6                  27718174.436    27718172.516
 151123596.775 9 117540636.710 6                  28310519.952    28310517.752
 145916731.181 9 113490815.710 8                  27306302.960    27306302.360
 150598916.199 8 117132532.139 5                  28172624.736    28172620.236
 147919010.668 9 115048187.844 7                  27690718.716    27690716.016
 163436689.847 5                                                  30660288.556
 145955175.035 9 113520723.435 7                  27275178.820    27275177.800
 24 11 23  0  5 30.0000000  0 16G17G22G19G14G07G30G02G21G15G13R22R11
                                R01R12R10R21
 141667767.517 8 110390535.277 9                  26958449.222    26958448.242
 144888969.943 9 112900546.674 6                  27571422.878    27571422.258
 152817064.766 8 119078268.123 5                  29080101.586    29080099.466
 142107406.972 8 110733093.681 6                  27042112.660    27042110.920
 150941734.127 7 117616952.392 6                  28723248.410    28723245.450
 142226030.277 9 110825541.219 9                  27064694.120    27064690.900
 157995952.395 7 123113748.147 4                  30065608.460    30065606.800
 160458445.078 6 125032534.870 2                  30534216.398    30534211.238
 157352895.110 6 122612691.872 4                  29943249.182    29943243.102
 145460890.107 9 113346179.217 6                  27680259.996    27680258.356
 150838166.712 9 117318635.741 6                  28257049.152    28257047.332
 145771601.773 9 113377937.300 8                  27279143.780    27279143.420
 150522422.021 8 117073036.546 5                  28158315.296    28158310.616
 147701425.267 9 114878954.830 7                  27649986.256    27649983.576
 163333247.199 5                                                  30640883.376
 145769064.037 9 113375970.483 7                  27240399.360    27240398.820
 24 11 23  0  6  0.0000000  0 16G17G22G19G14G07G30G02G21G15G13R22R11
                                R01R12R10R21
 141689528.645 9 110407492.078 8                  26962590.102    26962588.902
 144944437.699 9 112943768.343 6                  27581977.936    27581977.536
 152784600.602 7 119052971.542 5                  29073923.648    29073921.628
 142180326.585 8 110789914.194 6                  27055988.680    27055987.140
 151067824.139 8 117715204.313 6                  28747242.790    28747239.870
 142309006.733 9 110890198.200 9                  27080484.080    27080480.720
 158062078.151 7 123165274.790 4                  30078191.520    30078189.520
 160560884.023 6 125112357.491 2                  30553709.778    30553704.758
 157363134.818 6 122620671.014 4                  29945197.602    29945191.742
 145497183.615 8 113374459.916 6                  27687166.096    27687164.456
 150791693.141 9 117282489.817 6                  28248343.172    28248340.932
 145865513.677 9 113450979.915 7                  27296717.860    27296718.320
 150685314.118 8 117199730.277 5                  28188786.712    28188782.632
 147722743.126 9 114895535.467 7                  27653976.276    27653974.116
 163468168.942 5                                                  30666193.716
 145823005.220 9 113417924.789 7                  27250479.380    27250478.580
 24 11 23  0  6 30.0000000  0 17G17G22G19G14G07G30G02G21G15G13R20R22
                                R11R01R12R10R21
 141788242.689 9 110484412.188 8                  26981374.720    26981373.820
 145076549.591 9 113046712.723 6                  27607117.796    27607117.176
 152828800.665 8 119087413.312 5                  29082334.766    29082332.886
 142329872.758 9 110906443.710 6                  27084446.280    27084444.880
 151270674.635 8 117873269.606 6                  28785843.868    28785841.368
 142468809.637 9 111014719.945 9                  27110893.700    27110890.420
 158205129.534 7 123276743.478 4                  30105413.240    30105411.120
 160740265.205 6 125252135.106 2                  30587844.596    30587840.196
 157450324.921 6 122688611.495 4                  29961789.382    29961782.582
 145610492.848 8 113462752.865 6                  27708728.216    27708726.356
 160164354.230 5 124572290.237 5                  29951547.604    29951540.804
 150823154.629 9 117306960.048 6                  28254236.972    28254234.492
 146037272.332 9 113584569.993 8                  27328860.140    27328860.380
 150926336.625 8 117387192.096 5                  28233876.192    28233871.132
 147821825.358 9 114972599.505 7                  27672525.316    27672523.036
 163680657.085 5                                                  30706056.776
 145955577.750 9 113521036.810 7                  27275253.660    27275252.620
 24 11 23  0  7  0.0000000  0 17G17G22G19G14G07G30G02G21G15G13R20R22
                                R11R01R12R10R21
 141655987.231 9 110381356.056 9                  26956207.282    26956206.262
 144977381.301 8 112969438.774 6                  27588246.656    27588246.196
 152641743.597 8 118941654.713 5                  29046738.588    29046736.828
 142248121.813 8 110842741.708 6                  27068889.580    27068888.000
 151242363.061 8 117851208.608 6                  28780456.448    28780453.708
 142397516.836 9 110959167.117 9                  27097327.100    27097323.580
 158117184.290 7 123208214.792 4                  30088677.620    30088675.540
 160688665.237 6 125211927.416 2                  30578025.918    30578020.558
 157306543.643 6 122576574.269 4                  29934428.262    29934422.102
 145492895.338 9 113371118.487 6                  27686350.196    27686348.416
 160160882.430 5 124569596.943 5                  29950898.004    29950890.684
 150619766.753 9 117148769.660 6                  28216134.652    28216132.812
 145973760.326 9 113535171.774 7                  27316974.780    27316974.740
 150932257.515 8 117391797.122 5                  28234983.072    28234978.992
 147685663.568 9 114866695.987 7                  27647035.476    27647032.396
 163658364.056 5                                                  30701874.756
 145853224.598 9 113441428.855 7                  27256126.380    27256125.620
 24 11 23  0  7 30.0000000  0 17G17G22G19G14G07G30G02G21G15G13R20R22
                                R11R01R12R10R21
 141553043.832 9 110301140.490 8                  26936617.722    26936616.722
 144907212.145 8 112914761.559 6                  27574893.898    27574893.338
 152483712.271 8 118818513.585 5                  29016666.008    29016664.448
 142195353.269 8 110801623.389 6                  27058848.040    27058846.600
 151243169.028 7 117851836.600 6                  28780609.948    28780606.828
 142355409.222 9 110926355.991 9                  27089314.180    27089311.080
 158058522.996 7 123162504.767 4                  30077515.160    30077513.060
 160666363.261 6 125194549.320 2                  30573781.098    30573777.638
 157192073.139 6 122487376.613 4                  29912645.082    29912639.862
 145404672.460 8 113302373.437 6                  27669561.976    27669559.976
 160187250.051 5 124590105.190 5                  29955829.284    29955821.904
 150445927.374 8 117013561.429 6                  28183568.252    28183566.432
 145939649.583 9 113508641.205 7                  27310591.520    27310591.200
 150967836.094 8 117419469.213 5                  28241638.852    28241634.852
 147578836.511 9 114783608.361 7                  27627037.036    27627034.336
 163665310.672 5                                                  30703177.576
 145780990.041 9 113385246.462 7                  27242627.740    27242626.580
 24 11 23  0  8  0.0000000  0 18G17G22G19G14G07G30G02G21G15G13R03R20
                                R22R11R01R12R10R21
 141525200.927 9 110279444.788 9                  26931319.402    26931318.202
 144911829.153 9 112918359.279 6                  27575772.438    27575771.838
 152400497.032 8 118753670.698 5                  29000830.768    29000829.068
 142217354.403 8 110818767.156 6                  27063034.680    27063033.220
 151318880.179 8 117910832.273 6                  28795017.508    28795014.468
 142388275.462 9 110951966.048 9                  27095568.420    27095565.100
 158074934.511 6 123175293.032 4                  30080637.940    30080635.740
 160719146.602 6 125235679.270 2                  30583826.116    30583820.816
 157152702.960 6 122456698.682 4                  29905153.102    29905147.522
 145391613.442 9 113292197.613 6                  27667076.756    27667075.096
 164065869.505 6 127606791.964 5                  30648887.856    30648881.796
 160290039.322 5 124670052.392 5                  29975051.364    29975043.264
 150348152.736 9 116937514.661 6                  28165252.036    28165250.476
 145981501.034 9 113541192.350 7                  27318423.100    27318423.220
 151079644.112 8 117506430.897 5                  28262555.332    28262550.392
 147547888.493 9 114759537.759 7                  27621242.996    27621240.816
 163747944.411 5                                                  30718680.136
 145785500.922 9 113388754.975 7                  27243470.800    27243469.780
 24 11 23  0  8 30.0000000  0 18G17G22G19G14G07G30G02G21G15G13R03R20
                                R22R11R01R12R10R21
 141537310.826 9 110288881.132 9                  26933623.642    26933622.922
 144956082.522 9 112952842.478 6                  27584193.416    27584193.096
 152356951.047 7 118719738.931 5                  28992543.928    28992542.168
 142278975.932 9 110866783.954 6                  27074760.800    27074759.600
 151434347.655 8 118000806.899 6                  28816990.168    28816987.268
 142460967.718 9 111008609.365 9                  27109401.280    27109397.980
 158131270.767 6 123219191.485 4                  30091358.140    30091356.100
 160811865.623 6 125307927.926 2                  30601469.496    30601464.376
 157153286.521 6 122457153.528 4                  29905264.042    29905258.422
 145418570.502 9 113313203.154 6                  27672206.376    27672204.496
 164032474.706 7 127580818.429 5                  30642651.456    30642644.256
 160433481.431 5 124781622.733 5                  30001877.100    30001869.280
 150290743.348 9 116892863.108 6                  28154497.796    28154496.016
 146063573.508 9 113605026.505 7                  27333782.100    27333782.060
 151231923.172 8 117624870.023 5                  28291041.792    28291037.472
 147557090.363 9 114766694.847 7                  27622965.836    27622963.276
 163870611.501 5                                                  30741690.616
 145830966.393 9 113424117.054 7                  27251966.700    27251966.120
 24 11 23  0  9  0.0000000  0 18G17G22G19G14G07G30G02G21G15G13R03R20
                                R22R11R01R12R10R21
 141549043.176 9 110298023.290 9                  26935856.222    26935855.402
 144999640.163 8 112986783.555 6                  27592482.056    27592481.876
 152312745.683 7 118685293.371 5                  28984131.528    28984130.088
 142339886.125 9 110914246.465 6                  27086351.620    27086350.180
 151549240.195 8 118090333.515 6                  28838853.648    28838850.488
 142533155.709 9 111064859.744 9                  27123138.140    27123135.040
 158187201.363 7 123262773.839 4                  30102001.320    30101999.660
 160904188.693 6 125379868.058 2                  30619037.656    30619033.696
 157153493.433 6 122457314.881 4                  29905303.162    29905297.842
 145445213.561 9 113333964.020 6                  27677276.336    27677274.516
 163998662.664 7 127554520.381 5                  30636332.176    30636327.416
 160576541.092 5 124892890.662 5                  30028628.140    30028621.700
 150232735.434 9 116847746.032 6                  28143630.496    28143628.736
 146144856.226 9 113668246.411 7                  27348993.120    27348993.020
 151383642.770 8 117742874.050 5                  28319424.552    28319419.712
 147565445.192 9 114773193.134 7                  27624529.516    27624527.096
 163992402.522 5                                                  30764538.376
 145876318.344 9 113459390.839 7                  27260442.000    27260440.920
 24 11 23  0  9 30.0000000  0 17G17G22G19G14G07G30G02G21G15G13R03R20
                                R22R11R01R12R21
 141526639.922 9 110280566.277 9                  26931592.862    26931591.842
 145008742.586 8 112993876.411 6                  27594214.096    27594213.776
 152234124.427 8 118624030.235 5                  28969170.588    28969168.368
 142366325.586 8 110934848.658 6                  27091382.900    27091381.360
 151629798.953 8 118153106.536 6                  28854183.228    28854180.708
 142571081.308 9 111094412.158 9                  27130355.020    27130352.060
 158208968.024 7 123279734.942 4                  30106143.560    30106141.600
 160962356.031 6 125425193.328 2                  30630106.816    30630102.296
 157119566.701 6 122430878.577 4                  29898847.082    29898841.362
 145437784.717 9 113328175.351 6                  27675862.576    27675860.936
 163930048.311 6 127501153.899 5                  30623518.416    30623509.916
 160684849.829 5 124977130.442 5                  30048882.300    30048875.300
 150139841.271 9 116775495.199 6                  28126227.456    28126226.196
 146191021.572 9 113704152.797 7                  27357632.100    27357631.920
 151500457.917 8 117833730.128 5                  28341276.632    28341273.592
 147538636.879 9 114752342.315 6                  27619511.096    27619508.576
 145887180.803 9 113467839.463 7                  27262471.880    27262470.660
 24 11 23  0 10  0.0000000  0 17G17G22G19G14G07G30G02G21G15G13R03R20
                                R22R11R01R12R21
 141397738.318 9 110180123.532 9                  26907063.682    26907062.902
 144911025.120 9 112917732.986 6                  27575619.058    27575618.838
 152048725.594 7 118479563.783 5                  28933889.808    28933888.188
 142285930.107 8 110872202.844 6                  27076084.160    27076082.500
 151603660.047 7 118132738.520 6                  28849209.328    28849206.788
 142502381.772 9 111040880.057 9                  27117281.840    27117279.080
 158124207.941 7 123213688.195 4                  30090014.260    30090012.480
 160914003.010 6 125387515.713 2                  30620905.396    30620901.036
 156979144.260 6 122321458.602 4                  29872125.442    29872120.702
 145323921.270 8 113239450.624 6                  27654195.116    27654193.756
 163752921.792 6 127363389.016 5                  30590425.736    30590419.416
 160684771.329 5 124977071.632 5                  30048868.240    30048862.160
 149938558.371 9 116618942.003 6                  28088520.196    28088518.916
 146128485.531 9 113655513.658 7                  27345929.220    27345929.180
 151508753.861 8 117840182.396 5                  28342829.932    28342825.272
 147403106.664 9 114646930.027 7                  27594139.296    27594137.256
 145789866.947 9 113392150.948 7                  27244286.380    27244285.380
 24 11 23  0 10 30.0000000  0 16G17G22G19G14G07G30G02G21G15G13R03R22
                                R11R01R12R21
 141323074.993 9 110121944.387 9                  26892855.682    26892855.322
 144867222.796 9 112883601.355 6                  27567283.658    27567283.738
 151917287.461 8 118377144.652 5                  28908878.268    28908876.488
 142259434.801 8 110851557.164 6                  27071042.380    27071040.400
 151631558.852 8 118154477.806 6                  28854518.128    28854515.488
 142487793.492 9 111029512.563 9                  27114505.840    27114502.440
 158093657.338 7 123189882.608 4                  30084200.520    30084198.560
 160919864.298 6 125392083.014 2                  30622020.716    30622016.196
 156892963.552 6 122254304.914 4                  29855725.682    29855719.862
 145264360.002 9 113193039.285 6                  27642860.756    27642859.456
 163631020.842 6 127268577.302 5                  30567656.480    30567648.060
 149792167.199 9 116505082.406 6                  28061096.756    28061095.116
 146120696.636 9 113649455.650 7                  27344471.460    27344471.640
 151572030.835 8 117889397.689 5                  28354666.932    28354662.292
 147322245.254 9 114584037.913 7                  27579001.780    27579000.200
 145748054.490 9 113359630.184 7                  27236472.140    27236471.540
 24 11 23  0 11  0.0000000  0 16G17G22G19G14G07G30G02G21G15G13R03R22
                                R11R01R12R21
 141292714.700 9 110098287.080 9                  26887078.262    26887077.382
 144867398.661 8 112883738.440 6                  27567317.418    27567317.018
 151829876.701 8 118309032.550 5                  28892243.708    28892242.448
 142276903.493 8 110865169.140 6                  27074366.480    27074364.740
 151703559.756 8 118210582.359 6                  28868219.808    28868216.788
 142517381.572 9 111052568.214 9                  27120136.420    27120133.280
 158107381.268 7 123200576.649 4                  30086811.700    30086810.060
 160970003.916 6 125431152.913 2                  30631561.756    30631557.216
 156851090.428 6 122221676.610 4                  29847757.682    29847751.922
 145249166.065 9 113181199.893 6                  27639969.316    27639968.116
 163554227.795 7 127208849.573 5                  30553309.520    30553301.260
 149690579.769 9 116426070.163 6                  28042064.896    28042063.596
 146157551.733 9 113678120.748 7                  27351368.780    27351368.940
 151680177.405 7 117973511.549 5                  28374897.612    28374893.252
 147285952.920 9 114555810.648 7                  27572207.500    27572205.640
 145751627.054 9 113362408.891 7                  27237139.880    27237139.280
 24 11 23  0 11 30.0000000  0 16G17G22G19G14G07G30G02G21G15G13R03R22
                                R11R01R12R21
 141291827.448 9 110097595.774 9                  26886909.362    26886908.702
 144896720.721 9 112906586.843 6                  27572897.178    27572896.498
 151771664.169 8 118263672.321 5                  28881166.268    28881165.188
 142323504.380 8 110901481.538 6                  27083234.300    27083232.540
 151804830.890 8 118289494.884 6                  28887491.048    28887488.068
 142576315.623 9 111098490.854 9                  27131351.300    27131347.840
 158150549.290 7 123234214.135 4                  30095026.420    30095024.500
 161049589.444 6 125493167.670 2                  30646706.576    30646702.056
 156838695.402 6 122212018.259 4                  29845398.582    29845392.282
 145263509.564 8 113192376.680 6                  27642698.816    27642697.176
 163507438.376 7 127172457.908 5                  30544569.540    30544561.780
 149618735.172 9 116370191.221 6                  28028606.396    28028604.536
 146223970.515 9 113729779.818 7                  27363797.900    27363797.860
 151818102.310 8 118080786.342 5                  28400700.192    28400695.092
 147279153.917 9 114550522.637 7                  27570934.980    27570932.520
 145785482.517 9 113388740.955 7                  27243466.880    27243465.960
 24 11 23  0 12  0.0000000  0 16G17G22G19G14G07G30G02G21G15G13R03R22
                                R11R01R12R21
 141358363.084 9 110149441.787 9                  26899570.662    26899569.882
 144993137.185 8 112981716.592 6                  27591244.736    27591244.036
 151780601.185 8 118270636.412 5                  28882866.628    28882865.368
 142437186.037 8 110990064.662 6                  27104867.180    27104865.480
 151973321.415 7 118420786.166 6                  28919553.568    28919550.588
 142702545.440 9 111196851.748 9                  27155372.100    27155368.760
 158261110.646 7 123320365.910 4                  30116065.520    30116063.660
 161196568.974 6 125607697.235 2                  30674675.836    30674670.896
 156893728.877 6 122254901.598 4                  29855871.042    29855865.562
 145345339.875 9 113256140.600 6                  27658270.756    27658269.176
 163529312.470 7 127189471.248 5                  30548653.720    30548648.040
 149615186.870 9 116367431.643 6                  28027941.636    28027939.376
 146358543.277 9 113834447.536 7                  27388981.720    27388981.820
 152024404.011 8 118241243.081 5                  28439292.412    28439289.192
 147340424.310 9 114598177.491 7                  27582405.016    27582402.456
 145888265.170 9 113468683.060 7                  27262674.400    27262673.460
 24 11 23  0 12 30.0000000  0 16G17G22G19G14G07G30G02G21G15G13R03R22
                                R11R01R12R21
 141316050.771 9 110116471.221 9                  26891518.782    26891517.822
 144980376.156 9 112971772.978 6                  27588816.176    27588815.716
 151680418.915 8 118192572.494 5                  28863802.668    28863801.128
 142441676.938 9 110993564.091 6                  27105721.720    27105720.500
 152032760.307 7 118467102.145 6                  28930864.448    28930861.988
 142719800.864 9 111210297.535 9                  27158655.620    27158652.200
 158262795.121 6 123321678.548 4                  30116385.740    30116383.860
 161234670.635 6 125637386.904 2                  30681926.616    30681921.296
 156839921.247 6 122212973.673 4                  29845631.722    29845626.382
 145318387.119 8 113235138.497 6                  27653141.796    27653140.316
 163440294.279 7 127120234.983 5                  30532024.960    30532018.280
 149500883.008 9 116278528.839 6                  28006528.276    28006526.896
 146382025.297 9 113852711.350 8                  27393375.860    27393376.000
 152119770.304 8 118315416.728 5                  28457134.072    28457128.912
 147290582.075 9 114559411.411 7                  27573074.360    27573071.800
 145880478.909 9 113462627.121 7                  27261218.900    27261218.460
 24 11 23  0 13  0.0000000  0 16G17G22G19G14G07G30G02G21G15G13R03R22
                                R11R01R12R21
 141204238.380 9 110029344.744 9                  26870241.482    26870240.702
 144897783.778 9 112907415.322 6                  27573099.278    27573098.938
 151510466.546 8 118060142.255 5                  28831461.148    28831459.908
 142376323.461 8 110942639.325 6                  27093285.320    27093283.960
 152022494.104 7 118459102.463 6                  28928910.988    28928908.148
 142667429.467 9 111169488.658 9                  27148689.580    27148686.440
 158194950.325 7 123268812.538 4                  30103475.380    30103473.520
 161203240.953 6 125612896.309 2                  30675944.956    30675940.516
 156716620.986 6 122116895.646 4                  29822168.562    29822162.682
 145221999.282 9 113160031.128 6                  27634799.676    27634798.356
 163280467.321 7 126995925.252 5                  30502167.600    30502161.500
 149315796.908 9 116134573.191 6                  27971855.256    27971854.036
 146334428.680 9 113815691.767 7                  27384469.080    27384468.980
 152144221.180 8 118334433.934 5                  28461707.152    28461703.412
 147169624.351 9 114465333.296 7                  27550430.600    27550427.920
 145802191.335 9 113401736.831 7                  27246589.060    27246588.480
 24 11 23  0 13 30.0000000  0 17G17G22G19G14G07G30G02G21G15G13R03R20
                                R22R11R01R12R21
 142918233.749 9 111364925.609 9                  27196403.960    27196403.300
 146640665.176 8 114265504.768 6                  27904758.514    27904758.194
 153166055.554 8 119350211.800 5                  29146509.286    29146508.246
 144136430.390 9 112314151.238 6                  27428222.458    27428221.158
 153837825.580 8 119873646.423 6                  29274357.206    29274354.266
 144440736.801 9 112551286.582 9                  27486138.738    27486135.498
 159952881.992 7 124638629.485 4                  30437998.618    30437996.878
 162997582.144 6 127011084.342 2                  31017395.994    31017390.894
 158419137.072 6 123443531.666 4                  30146146.660    30146140.640
 146951483.356 9 114507681.099 6                  27963909.814    27963907.994
 164980505.236 7 128318177.074 5                  30819748.476    30819743.716
 163148865.313 5 126893583.417 5                  30509666.640    30509659.160
 150985190.154 9 117432990.369 6                  28284588.412    28284587.372
 148143035.091 9 115222385.653 8                  27722925.056    27722925.156
 154025707.610 7 119797812.115 5                  28813679.108    28813674.368
 148904159.217 9 115814416.061 7                  27875139.196    27875136.036
 147583392.643 9 114787115.674 8                  27579449.160    27579447.920
 24 11 23  0 14  0.0000000  0 16G17G22G19G14G07G30G02G21G15G13R03R22
                                R11R01R12R21
 141478147.710 9 110242780.707 9                  26922364.482    26922363.782
 145229132.425 9 113165609.159 6                  27636152.756    27636152.296
 151667292.160 8 118182344.406 5                  28861304.008    28861303.088
 142742112.116 8 111227669.488 6                  27162892.520    27162890.980
 152498875.245 7 118830308.455 6                  29019563.128    29019560.348
 143059839.832 9 111475262.974 9                  27223362.780    27223359.400
 158556705.148 7 123550699.540 4                  30172314.780    30172313.040
 161637812.325 6 125951523.522 2                  30758640.936    30758636.956
 156967579.753 6 122312448.139 4                  29869924.362    29869918.722
 145526951.875 8 113397656.612 6                  27692830.456    27692828.696
 163467606.431 7 127141478.130 5                  30537126.220    30537120.020
 149450484.959 9 116239330.968 6                  27997086.656    27997085.056
 146743943.657 9 114134203.443 7                  27461104.100    27461104.040
 152698552.645 7 118765580.334 5                  28565407.672    28565401.472
 147432054.988 9 114669446.205 7                  27599557.976    27599555.316
 146153065.489 9 113674639.039 7                  27312158.000    27312157.320
 24 11 23  0 14 30.0000000  0 17G17G22G19G14G07G30G02G21G15G13R03R13
                                R22R11R01R12R21
 141400170.848 9 110182019.573 9                  26907525.882    26907525.322
 145179371.974 8 113126834.818 6                  27626683.596    27626683.056
 151530374.284 8 118075655.335 5                  28835249.068    28835247.988
 142709553.876 9 111202299.458 6                  27156696.760    27156695.380
 152521823.320 8 118848190.031 6                  29023930.048    29023927.308
 143040923.761 9 111460523.183 9                  27219763.180    27219760.060
 158522606.411 7 123524129.153 4                  30165825.900    30165824.180
 161640112.754 6 125953316.142 2                  30759078.236    30759074.696
 156878141.832 6 122242756.355 4                  29852904.642    29852898.282
 145464594.587 9 113349066.551 6                  27680963.936    27680962.356
 163342227.386 7 127043961.254 5                  30513704.600    30513697.880
 163540600.870 5                                                  30625900.896
 149299241.283 9 116121697.185 6                  27968752.996    27968751.616
 146729534.130 9 114122996.066 7                  27458407.380    27458407.260
 152756736.864 7 118810834.568 5                  28576290.952    28576286.712
 147344086.211 9 114601026.140 7                  27583089.616    27583087.096
 146110043.267 9 113641177.348 8                  27304118.480    27304117.900
 24 11 23  0 15  0.0000000  0 17G17G22G19G14G07G30G02G21G15G13R03R13
                                R22R11R01R12R21
 141404739.988 9 110185580.002 9                  26908395.322    26908394.582
 145211819.908 9 113152118.959 6                  27632858.156    27632857.736
 151475738.983 8 118033082.547 5                  28824852.048    28824851.108
 142759192.657 8 111240979.059 6                  27166142.680    27166141.300
 152627108.413 7 118930230.328 6                  29043965.008    29043962.628
 143104427.152 9 111510006.351 9                  27231847.440    27231844.400
 158571023.289 7 123561856.645 4                  30175039.200    30175037.520
 161724921.068 6 126019400.610 2                  30775216.436    30775213.016
 156871260.484 6 122237394.372 5                  29851594.802    29851589.362
 145484848.563 9 113364848.909 6                  27684818.116    27684816.456
 163300933.700 7 127011844.079 5                  30505990.340    30505984.180
 163505959.963 6 127171302.694 3                  30619413.896    30619414.116
 149231680.224 9 116069149.873 6                  27956096.536    27956095.256
 146798657.381 9 114176758.624 7                  27471342.540    27471342.960
 152898650.430 8 118921211.625 5                  28602840.132    28602835.332
 147339557.773 9 114597504.108 7                  27582242.056    27582240.256
 146151347.438 9 113673302.860 7                  27311837.240    27311836.180
 24 11 23  0 15 30.0000000  0 17G17G22G19G14G07G30G02G21G15G13R03R13
                                R22R11R01R12R21
 141333602.137 9 110130147.965 9                  26894858.162    26894857.522
 145168221.895 9 113118146.519 6                  27624561.716    27624561.196
 151345133.958 7 117931312.571 5                  28799998.848    28799997.688
 142732774.215 9 111220393.288 6                  27161115.560    27161114.320
 152656476.767 8 118953114.719 6                  29049553.788    29049551.308
 143092096.905 9 111500398.377 9                  27229501.020    27229497.940
 158543702.953 7 123540568.127 4                  30169840.780    30169839.080
 161733982.181 6 126026461.287 2                  30776940.636    30776937.016
 156788683.109 6 122173048.472 5                  29835880.882    29835875.502
 145429460.828 9 113321689.674 6                  27674278.176    27674276.736
 163182521.932 7 126919746.178 5                  30483869.360    30483863.880
 163393800.244 5                                                  30598407.716
 149087051.824 9 115956661.302 6                  27929002.416    27929001.056
 146790390.409 9 114170328.768 7                  27469795.480    27469795.860
 152963308.724 7 118971501.244 5                  28614934.832    28614930.492
 147257602.436 9 114533761.148 7                  27566899.400    27566897.680
 146115828.693 9 113645677.217 7                  27305199.620    27305198.960
 24 11 23  0 16  0.0000000  0 17G17G22G19G14G07G30G02G21G15G13R03R13
                                R22R11R01R12R21
 141205476.224 9 110030309.643 9                  26870476.462    26870475.962
 145067295.305 9 113039502.459 6                  27605356.016    27605355.616
 151157280.090 8 117784933.102 5                  28764251.050    28764250.250
 142649016.485 8 111155127.553 6                  27145176.800    27145175.460
 152628646.328 8 118931428.623 6                  29044257.828    29044255.288
 143022652.158 9 111446285.595 9                  27216286.160    27216283.200
 158459364.500 6 123474849.901 4                  30153791.700    30153789.180
 161686013.810 6 125989083.413 2                  30767812.996    30767808.736
 156649129.544 7 122064305.536 5                  29809325.022    29809318.722
 145317150.428 9 113234175.114 6                  27652906.196    27652904.596
 163006062.722 6 126782500.254 5                  30450906.300    30450899.100
 163223141.736 5                                                  30566449.520
 148884375.034 9 115799023.965 6                  27891033.816    27891033.076
 146723768.206 9 114118511.519 7                  27457328.180    27457328.100
 152969748.338 7 118976509.679 5                  28616141.272    28616135.032
 147117248.303 9 114424596.902 7                  27540624.900    27540623.160
 146022548.102 9 113573125.684 7                  27287767.960    27287767.280
 24 11 23  0 16 30.0000000  0 17G17G22G19G14G07G30G02G21G15G13R03R13
                                R22R11R01R12R21
 141150945.255 9 109987818.027 9                  26860099.662    26860099.222
 145039621.968 8 113017938.855 6                  27600089.896    27600089.716
 151042762.804 8 117695699.002 5                  28742459.230    28742458.370
 142638501.511 9 111146934.098 6                  27143175.980    27143174.160
 152674199.351 7 118966924.448 6                  29052926.448    29052923.248
 143026676.109 9 111449421.150 9                  27217051.960    27217048.580
 158448590.269 6 123466454.442 4                  30151741.140    30151738.980
 161711596.852 6 126009018.331 2                  30772681.396    30772677.516
 156583183.912 6 122012919.417 5                  29796775.682    29796769.702
 145278500.622 9 113204058.419 6                  27645551.376    27645549.796
 162904578.424 6 126703568.152 5                  30431947.520    30431941.440
 163126677.201 5                                                  30548385.980
 148756300.591 9 115699410.679 6                  27867041.456    27867040.096
 146731577.351 9 114124585.321 7                  27458789.800    27458789.320
 153050796.696 7 119039547.133 5                  28631302.072    28631296.572
 147051234.940 9 114373253.252 7                  27528267.360    27528264.840
 146004478.639 9 113559071.697 8                  27284391.200    27284390.520
 24 11 23  0 17  0.0000000  0 17G17G22G19G14G07G30G02G21G15G13R03R13
                                R22R11R01R12R21
 141110305.367 9 109956150.635 9                  26852366.142    26852365.462
 145025496.887 8 113006932.335 6                  27597401.896    27597401.756
 150941879.617 8 117617088.879 5                  28723261.650    28723260.710
 142641524.701 9 111149289.857 6                  27143751.200    27143749.880
 152733431.423 7 119013079.273 6                  29064198.028    29064195.128
 143044465.227 9 111463282.806 9                  27220437.100    27220433.720
 158451676.522 6 123468859.362 4                  30152327.980    30152326.640
 161751026.676 6 126039742.941 2                  30780184.816    30780179.436
 156531143.272 7 121972368.364 5                  29786872.722    29786866.622
 145253807.943 9 113184817.405 6                  27640852.236    27640850.856
 162817254.233 6 126635649.464 5                  30415633.460    30415629.040
 163043737.548 6                                                  30532851.820
 148642185.540 9 115610654.699 7                  27845663.696    27845663.036
 146753107.145 9 114141330.740 7                  27462818.580    27462818.520
 153145716.421 7 119113373.404 5                  28649060.052    28649053.792
 146998872.468 9 114332526.955 7                  27518464.940    27518462.720
 146000823.391 9 113556228.776 7                  27283707.820    27283707.100
 24 11 23  0 17 30.0000000  0 17G17G22G19G14G07G30G02G21G15G13R03R13
                                R22R11R01R12R21
 140956970.684 9 109836669.107 9                  26823187.422    26823186.762
 144898332.701 9 112907843.390 6                  27573203.418    27573203.178
 150728046.073 8 117450465.479 5                  28682570.230    28682569.250
 142531499.138 8 111063555.681 6                  27122813.980    27122812.680
 152679755.891 8 118971254.134 6                  29053983.908    29053980.748
 142949433.796 9 111389232.348 9                  27202353.160    27202349.700
 158342037.197 7 123383426.172 4                  30131464.500    30131462.480
 161677715.562 6 125982617.467 2                  30766234.236    30766229.896
 156366422.340 7 121844014.483 5                  29755527.022    29755521.682
 145116486.672 8 113077813.850 6                  27614720.876    27614719.696
 162615144.766 6 126478453.343 5                  30377878.940    30377872.620
 162845690.202 5                                                  30495766.480
 148413447.656 9 115432747.622 7                  27802812.776    27802811.876
 146659636.705 9 114068631.527 7                  27445326.920    27445327.200
 153125735.994 7 119097832.908 5                  28645321.272    28645316.332
 146831484.397 9 114202336.291 7                  27487129.400    27487126.740
 145882679.647 9 113464339.235 8                  27261629.960    27261629.400
 24 11 23  0 18  0.0000000  0 17G17G22G19G14G07G30G02G21G15G13R03R13
                                R22R11R01R12R21
 141138101.202 9 109977809.820 9                  26857655.482    26857654.982
 145105287.546 9 113069106.950 6                  27612585.536    27612585.156
 150848424.734 8 117544267.176 5                  28705477.830    28705476.770
 142755583.454 8 111238166.867 6                  27165455.700    27165454.480
 152960330.790 7 119189883.883 6                  29107375.746    29107372.906
 143188741.322 9 111575705.749 9                  27247891.780    27247888.580
 158566832.143 6 123558591.119 4                  30174241.460    30174240.180
 161938820.754 6 126186076.118 2                  30815920.556    30815916.776
 156536181.876 6 121976294.731 5                  29787831.122    29787825.362
 145313696.598 8 113231483.957 6                  27652248.836    27652247.136
 162753755.342 6 126586261.695 5                  30403772.180    30403766.000
 162986920.136 6                                                  30522214.360
 148524317.114 9 115518979.584 7                  27823582.756    27823581.496
 146905869.316 9 114260145.801 7                  27491405.580    27491405.900
 153445713.049 7 119346703.776 5                  28705180.312    28705174.692
 147003615.049 9 114336215.748 7                  27519352.580    27519349.900
 146105389.956 9 113637558.405 7                  27303248.480    27303248.080
 24 11 23  0 18 30.0000000  0 17G17G22G19G14G07G30G02G21G15G13R03R13
                                R22R11R01R12R21
 141042659.350 9 109903439.593 9                  26839493.542    26839492.922
 145035323.039 9 113014589.195 6                  27599271.736    27599271.396
 150691978.305 8 117422360.993 5                  28675706.810    28675705.510
 142702739.509 8 111196989.801 6                  27155399.840    27155398.580
 152964119.032 7 119192835.706 6                  29108096.566    29108093.346
 143151350.959 9 111546570.408 9                  27240776.760    27240773.660
 158515023.592 7 123518220.872 4                  30164382.880    30164381.060
 161923304.382 6 126173985.506 2                  30812968.016    30812963.776
 156429385.054 6 121893076.508 5                  29767508.442    29767502.722
 145234400.262 8 113169694.643 6                  27637159.076    27637157.616
 162610650.873 6 126474958.344 5                  30377038.200    30377032.700
 162846515.442 5                                                  30495918.560
 148354104.729 9 115386592.315 7                  27791695.956    27791694.676
 146870459.486 9 114232604.839 7                  27484779.400    27484779.180
 153484079.307 7 119376544.020 5                  28712359.172    28712352.392
 146894135.538 9 114251065.071 7                  27498857.280    27498855.540
 146046734.593 9 113591937.597 8                  27292287.500    27292286.760
 24 11 23  0 19  0.0000000  0 17G17G22G19G14G07G30G02G21G15G13R03R13
                                R22R11R01R12R21
 140801445.983 9 109715481.170 9                  26793592.122    26793591.382
 144819238.907 9 112846211.999 6                  27558152.178    27558151.718
 150389509.492 8 117186671.129 5                  28618148.650    28618147.850
 142503767.260 9 111041946.523 6                  27117536.680    27117535.540
 152821920.119 7 119082031.309 6                  29081037.246    29081034.406
 142968063.730 9 111403749.196 9                  27205898.360    27205895.360
 158317412.468 6 123364238.234 4                  30126778.620    30126776.560
 161761965.150 6 126048266.679 2                  30782266.196    30782262.056
 156176833.383 7 121696283.082 5                  29719449.322    29719444.022
 145009398.690 8 112994368.774 6                  27594342.556    27594341.436
 162319074.750 7 126248177.061 5                  30322569.540    30322564.180
 162557389.874 6                                                  30441778.960
 148035682.524 9 115138930.756 7                  27732044.576    27732043.536
 146686415.506 9 114089459.530 7                  27450338.060    27450337.420
 153373883.947 7 119290836.331 5                  28691744.612    28691737.752
 146636007.190 9 114050298.630 7                  27450535.400    27450533.060
 145839907.602 9 113431072.188 7                  27253636.720    27253636.500
 24 11 23  0 19 30.0000000  0 17G17G22G19G14G07G30G02G21G15G13R03R13
                                R22R11R01R12R21
 140890432.213 9 109784821.136 9                  26810525.542    26810524.902
 144933004.292 8 112934860.396 6                  27579800.878    27579800.598
 150416992.754 8 117208086.777 5                  28623378.250    28623377.930
 142634636.511 9 111143922.590 6                  27142440.240    27142438.920
 153009703.877 7 119228356.260 6                  29116771.306    29116768.286
 143114850.231 9 111518128.297 9                  27233830.840    27233827.620
 158449969.156 6 123467529.215 4                  30152003.260    30152001.760
 161930772.697 6 126179805.066 2                  30814388.796    30814384.056
 156254498.858 7 121756801.714 5                  29734228.462    29734223.002
 145114663.173 8 113076393.079 6                  27614373.796    27614372.096
 162363882.082 7 126283027.351 5                  30330939.760    30330933.260
 162603205.030 6                                                  30450355.900
 148052547.157 9 115152047.840 7                  27735203.756    27735202.876
 146837738.398 9 114207155.118 7                  27478656.300    27478656.200
 153599292.099 7 119466153.594 5                  28733911.992    28733905.432
 146713061.554 9 114110229.860 7                  27464960.440    27464957.620
 145969589.503 9 113531935.921 7                  27277871.160    27277870.100
 24 11 23  0 20  0.0000000  0 17G17G22G19G14G07G30G02G21G15G13R03R13
