     2.11           OBSERVATION DATA    GPS(GPS)            RINEX VERSION / TYPE
cnvtToRINEX 3.14.0  convertToRINEX OPR  20241124 004231 UTC PGM / RUN BY / DATE 
----------------------------------------------------------- COMMENT             
ZLAB                                                        MARKER NAME         
ZLAB                                                        MARKER NUMBER       
GNSS Observer       Trimble                                 OBSERVER / AGENCY   
4611206603          TRIMBLE NETRS       1.32                REC # / TYPE / VERS 
12421073            TRM41249.00                             ANT # / TYPE        
 -2455551.4716 -4767160.7018  3441689.9000                  APPROX POSITION XYZ 
        0.5990        0.0000        0.0000                  ANTENNA: DELTA H/E/N
     1     1     0                                          WAVELENGTH FACT L1/2
     4    C1    L1    L2    P2                              # / TYPES OF OBSERV 
  2024    11    23     0     0    0.0000000     GPS         TIME OF FIRST OBS   
  2024    11    23    23    59   30.0000000     GPS         TIME OF LAST OBS    
     0                                                      RCV CLOCK OFFS APPL 
    18                                                      LEAP SECONDS        
    31                                                      # OF SATELLITES     
   G02   752   734   606   606                              PRN / # OF OBS      
   G03   680   661   675   675                              PRN / # OF OBS      
   G04   807   794   739   739                              PRN / # OF OBS      
   G05   632   617   620   620                              PRN / # OF OBS      
   G06   602   581   591   591                              PRN / # OF OBS      
   G07   907   900   891   891                              PRN / # OF OBS      
   G08   823   804   804   804                              PRN / # OF OBS      
   G09   796   787   792   792                              PRN / # OF OBS      
   G10   871   863   863   863                              PRN / # OF OBS      
   G11   682   679   656   656                              PRN / # OF OBS      
   G12   754   750   745   745                              PRN / # OF OBS      
   G13   726   708   550   550                              PRN / # OF OBS      
   G14   802   790   737   737                              PRN / # OF OBS      
   G15   846   820   810   810                              PRN / # OF OBS      
   G16   729   695   569   569                              PRN / # OF OBS      
   G17   708   704   694   694                              PRN / # OF OBS      
   G18   865   854   834   834                              PRN / # OF OBS      
   G19   728   724   707   707                              PRN / # OF OBS      
   G20   667   654   579   579                              PRN / # OF OBS      
   G21   593   588   563   563                              PRN / # OF OBS      
   G22   897   891   838   838                              PRN / # OF OBS      
   G23   798   793   751   751                              PRN / # OF OBS      
   G24   604   591   602   602                              PRN / # OF OBS      
   G25   625   612   613   613                              PRN / # OF OBS      
   G26   816   791   804   804                              PRN / # OF OBS      
   G27   738   704   728   728                              PRN / # OF OBS      
   G28   599   585   555   555                              PRN / # OF OBS      
   G29   785   775   769   769                              PRN / # OF OBS      
   G30   842   822   817   817                              PRN / # OF OBS      
   G31   643   638   642   642                              PRN / # OF OBS      
   G32   715   708   709   709                              PRN / # OF OBS      
CARRIER PHASE MEASUREMENTS: PHASE SHIFTS REMOVED            COMMENT             
                                                            END OF HEADER       
 24 11 23  0  0  0.0000000  0  8G02G07G13G14G17G19G22G30            
  23600108.96911  -2045391.37711                
  22131743.773 6 -13741847.472 6 -11641149.99648  22131740.09848
  21277599.586 6  -9846613.905 6  -6287915.57147  21277594.79747
  20557897.789 7 -23806056.073 7 -16338135.10748  20557892.29348
  20588037.555 6 -22838710.794 6 -16638078.93049  20588031.76649
  22820345.531 6 -14461486.590 6 -10162266.57147  22820340.09447
  21124322.039 6 -17573714.170 6 -12610826.76448  21124316.25048
  20563136.586 7 -16098124.024 7 -17813742.80049  20563132.61749
 24 11 23  0  0 30.0000000  0  8G02G07G13G14G17G19G22G30            
  23599303.95311  -2049626.24411                
  22142703.414 6 -13684252.389 6 -11596270.75148  22142699.15248
  21270956.953 6  -9881523.968 6  -6315118.16047  21270951.28147
  20558999.133 7 -23800267.136 7 -16333624.25248  20558994.34448
  20578733.844 6 -22887601.039 6 -16676175.14549  20578728.23049
  22801349.516 6 -14561312.541 6 -10240052.81347  22801344.37547
  21122059.203 7 -17585607.554 7 -12620094.30448  21122052.53548
  20565767.859 7 -16084294.574 7 -17802966.58749  20565764.65249
 24 11 23  0  1  0.0000000  0  8G02G07G13G14G17G19G22G30            
  23598590.88311  -2053372.82511                
  22153726.852 6 -13626323.807 6 -11551131.64248  22153721.71148
  21264422.023 6  -9915859.701 6  -6341873.23047  21264417.52747
  20560140.250 7 -23794271.976 7 -16328952.67848  20560134.46148
  20569527.281 6 -22935977.766 6 -16713871.22249  20569522.78549
  22782392.258 6 -14660927.562 6 -10317674.70447  22782387.70347
  21119838.297 7 -17597273.715 7 -12629184.80148  21119832.50848
  20568473.891 7 -16070076.221 7 -17791887.34049  20568470.21549
 24 11 23  0  1 30.0000000  0  8G02G07G13G14G17G19G22G30            
  23597970.953 3  -2056629.146 3   -738614.37556  23597963.17256
  22164814.273 6 -13568060.210 6 -11505731.48448  22164808.77748
  21257998.086 6  -9949618.888 6  -6368179.04248  21257993.53148
  20561320.461 7 -23788069.826 7 -16324119.82048  20561314.90648
  20560419.844 6 -22983838.554 6 -16751165.29049  20560414.87949
  22763477.133 6 -14760328.003 6 -10395129.40747  22763472.63747
  21117661.148 6 -17608712.963 6 -12638098.47348  21117655.88748
  20571253.945 7 -16055466.600 7 -17780503.21249  20571250.68049
 24 11 23  0  2  0.0000000  0  8G02G07G13G14G17G19G22G30            
  23597443.953 2  -2059395.282 2   -740769.62845  23597439.69145
  22175965.164 6 -13509462.893 6 -11460071.29848  22175960.19948
  21251683.391 6  -9982800.681 6  -6394034.94848  21251679.30548
  20562539.555 7 -23781662.376 7 -16319126.98948  20562534.17648
  20551410.969 7 -23031183.324 7 -16788057.25749  20551404.94549
  22744602.711 6 -14859512.495 6 -10472415.84447  22744598.15647
  21115527.453 6 -17619926.790 6 -12646836.50048  21115522.01648
  20574108.695 7 -16040465.769 7 -17768814.24449  20574104.72749
 24 11 23  0  2 30.0000000  0  8G02G07G13G14G17G19G22G30            
  23597011.266 1  -2061670.163 1   -742542.15545  23597008.05945
  22187180.328 6 -13450531.777 6 -11414150.97248  22187175.18848
  21245479.180 6 -10015403.998 6  -6419440.09748  21245474.68448
  20563797.922 6 -23775050.398 6 -16313974.77248  20563792.54348
  20542500.195 6 -23078011.016 6 -16824546.29149  20542494.11349
  22725769.438 6 -14958479.057 6 -10549532.45747  22725764.59047
  21113436.375 6 -17630916.187 6 -12655399.64548  21113430.23448
  20577038.188 7 -16025072.937 7 -17756819.82849  20577034.27749
 24 11 23  0  3  0.0000000  0  8G02G07G13G14G17G19G22G30            
  23596671.656 1  -2063454.759 1   -743932.69945  23596668.62545
  22198457.063 6 -13391268.436 6 -11367971.77648  22198452.97748
  21239385.156 6 -10047428.890 6  -6444394.51748  21239380.48448
  20565094.680 7 -23768236.112 7 -16308664.91148  20565089.53948
  20533687.586 7 -23124322.286 7 -16860632.92549  20533681.15249
  22706978.063 6 -15057226.725 6 -10626478.52947  22706973.50847
  21111387.445 7 -17641684.317 7 -12663790.37748  21111380.89548
  20580041.258 7 -16009288.785 7 -17744520.48449  20580037.99249
 24 11 23  0  3 30.0000000  0  8G02G07G13G14G17G19G22G30            
  23596425.80511                  -1972532.86655  23596424.70755
  22209799.109 6 -13331663.954 6 -11321526.71848  22209796.13748
  21233403.133 6 -10078865.182 6  -6468890.27948  21233397.93048
  20566431.063 6 -23761211.100 6 -16303190.84848  20566426.33248
  20524974.477 6 -23170106.897 6 -16896309.17349  20524968.57049
  22688230.938 6 -15155744.256 6 -10703245.24247  22688225.91447
  21109381.797 6 -17652222.332 6 -12672001.77448  21109376.06648
  20583121.461 7 -15993103.236 7 -17731908.36749  20583117.66849
 24 11 23  0  4  0.0000000  0  8G02G07G13G14G17G19G22G30            
  23596271.523 3  -3640968.873 3  -1973164.24245  23596270.83645
  22221201.570 6 -13271746.184 6 -11274837.58848  22221197.71948
  21227527.703 6 -10109739.685 6  -6492948.27748  21227522.56348
  20567802.820 6 -23754003.939 6 -16297574.84248  20567797.55948
  20516356.563 6 -23215391.755 6 -16931596.01749  20516350.94949
  22669523.172 6 -15254057.139 6 -10779852.50847  22669517.79347
  21107414.727 6 -17662559.182 6 -12680056.43948  21107408.93848
  20586272.664 7 -15976543.406 7 -17719004.61249  20586269.22349
 24 11 23  0  4 30.0000000  0  9G02G07G13G14G15G17G19G22G30         
  23596213.977 3  -3641276.638 3  -1973404.00445  23596211.82445
  22232668.938 6 -13211487.522 6 -11227882.81648  22232664.38348
  21221765.219 7 -10140023.086 7  -6516545.69347  21221760.13747
  20569214.500 7 -23746587.210 7 -16291795.54148  20569208.59448
  23493466.73411   -531054.00711                
  20507839.992 6 -23260147.225 6 -16966470.32949  20507834.02749
  22650859.570 6 -15352135.282 6 -10856276.87047  22650854.30947
  21105491.016 6 -17672667.866 6 -12687933.31748  21105485.28548
  20589501.313 7 -15959580.328 7 -17705786.64049  20589496.52349
 24 11 23  0  5  0.0000000  0  9G02G07G13G14G15G17G19G22G30         
  23596248.344 3  -3641087.553 3  -1973256.57745  23596247.65645
  22244199.570 6 -13150893.923 6 -11180667.07448  22244195.01648
  21216113.266 6 -10169720.402 6  -6539686.40447  21216109.53147
  20570663.820 6 -23738967.896 6 -16285858.37548  20570658.91448
  23482875.992 1   -586695.308 1                
  20499422.906 6 -23304378.982 6 -17000936.55749  20499417.76649
  22632238.031 6 -15449982.762 6 -10932521.47647  22632234.76647
  21103609.000 6 -17682555.826 6 -12695638.17348  21103604.15248
  20592804.570 7 -15942219.490 7 -17692258.71149  20592800.36749
 24 11 23  0  5 30.0000000  0  9G02G07G13G14G15G17G19G22G30         
  23596380.961 4  -3640402.188 4  -1972722.39545  23596377.52045
  22255792.797 6 -13089967.243 6 -11133191.76848  22255789.23848
  21210573.906 6 -10198832.079 6  -6562370.78247  21210569.35247
  20572151.859 6 -23731148.125 6 -16279765.00948  20572146.48048
  23472385.742 1   -641817.071 1                
  20491105.406 6 -23348087.709 6 -17034995.24249  20491100.02749
  22613663.469 6 -15547598.785 6 -11008585.75747  22613659.03147
  21101768.984 6 -17692225.433 6 -12703172.90848  21101763.66448
  20596183.875 7 -15924461.512 7 -17678421.32349  20596179.73049
 24 11 23  0  6  0.0000000  0  9G02G07G13G14G15G17G19G22G30         
  23596604.719 2  -3639221.604 2  -1971802.39144  23596602.44944
  22267449.148 5 -13028709.231 5 -11085458.27348  22267446.00048
  21205145.297 6 -10227358.882 6  -6584599.40547  21205140.62547
  20573677.734 6 -23723130.292 6 -16273517.32848  20573672.18048
  23461996.352 1   -696419.475 1                
  20482887.063 6 -23391274.076 6 -17068646.88249  20482881.80149
  22595131.266 6 -15644982.340 6 -11084468.90347  22595127.64847
  21099970.578 6 -17701679.545 6 -12710539.71448  21099964.96548
  20599638.070 7 -15906307.300 7 -17664275.19549  20599634.57049
 24 11 23  0  6 30.0000000  0  9G02G07G13G14G15G17G19G22G30         
  23596925.180 1  -3637543.790 1                
  22279169.914 6 -12967119.145 6 -11037466.03248  22279166.23848
  21199828.289 6 -10255298.201 6  -6606370.27547  21199823.73447
  20575241.688 7 -23714913.975 7 -16267114.96448  20575235.89848
  23451703.164 1   -750499.771 1                
  20474768.703 6 -23433936.093 6 -17101889.94149  20474763.56349
  22576643.984 5 -15742130.504 5 -11160168.62047  22576640.83647
  21098212.547 6 -17710917.668 6 -12717738.20148  21098207.10948
  20603168.695 7 -15887754.917 7 -17649818.80249  20603164.49249
 24 11 23  0  7  0.0000000  0  9G02G07G13G14G15G17G19G22G30         
  23597339.94511                                
  22290955.359 6 -12905190.323 6 -10989209.83048  22290950.80548
  21194625.961 6 -10282642.772 6  -6627677.68447  21194620.17247
  20576843.766 6 -23706493.265 6 -16260553.35348  20576838.15248
  23441514.000 1   -804049.697 1   -258471.77955  23441515.65655
  20466751.953 6 -23476066.354 6 -17134718.66049  20466746.22349
  22558204.695 6 -15839034.334 6 -11235677.95447  22558200.37547
  21096496.570 6 -17719934.458 6 -12724764.23848  21096491.43048
  20606776.078 7 -15868797.063 7 -17635046.45649  20606772.16849
 24 11 23  0  7 30.0000000  0  9G02G07G13G14G15G17G19G22G30         
  23597844.50011  -3632700.85211                
  22302798.703 6 -12842950.294 6 -10940711.14448  22302794.85248
  21189530.359 7 -10309418.758 7  -6648542.06648  21189524.92248
  20578479.320 7 -23697896.019 7 -16253854.19148  20578473.76648
  23431419.19511                   -299805.47555  23431421.37955
  20458831.000 7 -23517690.925 7 -17167153.32949  20458825.32849
  22539805.586 6 -15935718.930 6 -11311016.45947  22539802.37947
  21094818.156 6 -17728758.079 6 -12731639.73548  21094811.84048
  20610455.797 7 -15849460.146 7 -17619978.73149  20610451.77049
 24 11 23  0  8  0.0000000  0  9G02G07G13G14G15G17G19G22G30         
  23598449.73412  -3629522.85012                
  22314709.539 6 -12780360.218 6 -10891939.74348  22314705.39548
  21184550.203 6 -10335585.956 6  -6668932.05048  21184546.41048
  20580156.320 7 -23689083.895 7 -16246987.57748  20580150.76648
  23421431.422 2   -909594.537 2   -340714.26545  23421430.32445
  20451014.156 7 -23558770.348 7 -17199163.21349  20451007.89849
  22521456.844 5 -16032142.999 5 -11386151.95747  22521451.70347
  21093182.633 6 -17737350.408 6 -12738335.00348  21093176.72748
  20614214.953 7 -15829704.422 7 -17604584.63949  20614211.57049
 24 11 23  0  8 30.0000000  0  9G02G07G13G14G15G17G19G22G30         
  23599149.836 4  -3625852.895 4                
  22326681.430 6 -12717446.865 6 -10842916.39648  22326677.40248
  21179681.852 7 -10361169.849 7  -6688867.51548  21179677.59048
  20581868.586 6 -23680083.953 6 -16239974.62648  20581863.79748
  23411540.961 2   -961573.304 2   -381217.05946  23411538.45746
  20443295.063 7 -23599330.036 7 -17230768.10549  20443289.80149
  22503152.742 6 -16128331.058 6 -11461103.52147  22503146.48447
  21091585.805 6 -17745739.029 6 -12744871.55148  21091580.30948
  20618048.750 7 -15809555.506 7 -17588884.19949  20618046.07049
 24 11 23  0  9  0.0000000  0  9G02G07G13G14G15G17G19G22G30         
  23599942.805 4  -3621684.119 4                
  22338715.945 6 -12654204.151 6 -10793636.39148  22338712.62148
  21174925.836 6 -10386163.179 6  -6708342.81048  21174921.75048
  20583618.563 6 -23670890.593 6 -16232810.94948  20583613.65648
  23401751.109 3  -1013024.134 3   -421308.46846  23401747.66846
  20435677.594 7 -23639362.985 7 -17261962.54149  20435671.62949
  22484895.109 5 -16224274.348 5 -11535864.33647  22484888.32447
  21090029.227 6 -17753918.703 6 -12751245.27648  21090023.55548
  20621959.719 7 -15789006.358 7 -17572871.89049  20621956.57049
 24 11 23  0  9 30.0000000  0  9G02G07G13G14G15G17G19G22G30         
  23600831.227 4  -3617013.918 4                
  22350813.250 5 -12590630.121 5 -10744098.23048  22350810.33648
  21170282.992 6 -10410562.955 6  -6727355.58648  21170278.32048
  20585405.242 6 -23661502.326 6 -16225495.40648  20585399.74648
  23392058.055 1  -1063943.023 1   -460985.43645  23392057.83645
  20428160.000 6 -23678866.353 6 -17292744.31849  20428154.79749
  22466685.164 6 -16319968.403 6 -11610430.93647  22466678.67247
  21088513.797 7 -17761888.026 7 -12757455.07248  21088507.12948
  20625946.398 7 -15768054.262 7 -17556545.58549  20625943.77749
 24 11 23  0 10  0.0000000  0  8G02G07G13G14G17G19G22G30            
  23601814.492 2  -3611841.979 2                
  22362974.719 6 -12526725.619 6 -10694302.55248  22362970.75048
  21165753.328 6 -10434368.728 6  -6745905.51848  21165748.00848
  20587228.063 6 -23651920.282 6 -16218028.86148  20587223.21548
  20420743.461 6 -23717839.651 6 -17323113.07549  20420738.14149
  22448522.750 5 -16415411.654 5 -11684802.13447  22448516.66847
  21087036.250 7 -17769648.528 7 -12763502.14848  21087029.99248
  20630010.969 7 -15746698.885 7 -17539905.02949  20630007.35249
 24 11 23  0 10 30.0000000  0  9G02G07G13G14G15G17G19G22G30         
  23602894.172 1  -3606165.812 1                
  22375198.180 6 -12462488.790 6 -10644247.92148  22375194.44548
  21161335.992 7 -10457577.488 7  -6763990.22848  21161331.02748
  20589088.445 6 -23642142.970 6 -16210410.17648  20589083.65648
  23372986.06313  -1164176.89713   -511522.32456  23372983.85256
  20413428.750 7 -23756280.143 7 -17353066.64149  20413422.78549
  22430409.234 6 -16510599.828 6 -11758974.55047  22430404.09447
  21085599.445 6 -17777198.896 6 -12769385.52548  21085593.42248
  20634152.102 7 -15724937.428 7 -17522948.04849  20634148.30949
 24 11 23  0 11  0.0000000  0  9G02G07G13G14G15G17G19G22G30         
  23604068.945 1  -3599989.383 1                
  22387484.797 6 -12397924.257 6 -10593937.96148  22387480.30148
  21157032.797 6 -10480193.138 6  -6781612.77248  21157027.59448
  20590985.578 6 -23632175.692 6 -16202643.45548  20590980.55548
  23363601.875 2  -1213492.718 2   -549950.03446  23363599.13746
  20406214.406 7 -23794192.084 7 -17382608.34749  20406208.73449
  22412343.992 6 -16605535.313 6 -11832950.08947  22412338.96947
  21084202.242 7 -17784545.149 7 -12775109.83048  21084195.69148
  20638369.547 7 -15702773.903 7 -17505677.78549  20638364.99249
 24 11 23  0 11 30.0000000  0  9G02G07G13G14G15G17G19G22G30         
  23605341.83611  -3593307.57211                
  22399834.008 6 -12333028.331 6 -10543369.76048  22399830.03948
  21152842.984 7 -10502209.977 7  -6798768.72048  21152837.96148
  20592919.336 6 -23622014.610 6 -16194725.71748  20592914.01648
  23354319.156 1  -1262268.888 1   -587957.36145  23354317.35545
  20399101.656 7 -23831569.893 7 -17411733.84249  20399095.45749
  22394327.328 6 -16700211.640 6 -11906723.68447  22394321.89147
  21082843.258 7 -17791683.711 7 -12780672.31148  21082837.23448
  20642664.211 7 -15680203.064 7 -17488090.12049  20642661.23849
 24 11 23  0 12  0.0000000  0  9G02G07G13G14G15G17G19G22G30         
  23606710.20311                                
  22412246.195 5 -12267798.876 5 -10492541.66848  22412242.28548
  21148767.859 7 -10523625.714 7  -6815456.26748  21148762.77748
  20594889.969 6 -23611658.214 6 -16186655.78248  20594884.82848
  23345141.031 1  -1310502.209 1   -625541.72446  23345138.58646
  20392090.242 6 -23868410.775 6 -17440440.96749  20392084.39549
  22376361.977 6 -16794624.617 6 -11980292.04147  22376354.60547
  21081523.602 6 -17798613.381 6 -12786072.02748  21081518.34048
  20647037.867 7 -15657222.176 7 -17470182.95149  20647034.19149
 24 11 23  0 12 30.0000000  0  9G02G07G13G14G15G17G19G22G30         
  23608171.016 1  -3578436.929 1                
  22424720.359 6 -12202252.913 6 -10441466.88948  22424715.15648
  21144803.656 7 -10544455.845 7  -6831687.49848  21144799.21948
  20596894.461 6 -23601123.747 6 -16178447.09248  20596889.08248
  23336060.961 2  -1358207.827 2   -662714.88946  23336060.03946
  20385179.430 7 -23904731.138 7 -17468742.49249  20385173.46549
  22358442.836 6 -16888788.434 6 -12053666.25847  22358435.81647
  21080241.648 6 -17805351.739 6 -12791322.66148  21080235.39148
  20651486.000 7 -15633847.210 7 -17451968.69349  20651482.09049
 24 11 23  0 13  0.0000000  0  9G02G07G13G14G15G17G19G22G30         
  23609730.156 1  -3570244.750 1                
  22437256.344 6 -12136372.076 6 -10390131.19548  22437252.19948
  21140955.305 7 -10564680.684 7  -6847447.07948  21140949.92648
  20598936.672 6 -23590393.139 6 -16170085.54948  20598931.00048
  23327089.086 3  -1405365.595 3   -699461.10346  23327085.76246
  20378370.117 7 -23940511.388 7 -17496623.15249  20378364.56349
  22340574.289 6 -16982682.196 6 -12126830.04347  22340568.09047
  21078999.000 6 -17811880.967 6 -12796410.32148  21078993.03548
  20656012.617 7 -15610058.835 7 -17433432.29049  20656008.70749
 24 11 23  0 13 30.0000000  0  9G02G07G13G14G15G17G19G22G30         
  23611385.89811                                
  22449857.289 6 -12070156.156 6 -10338534.41848  22449853.61348
  21137221.656 7 -10584299.285 7  -6862734.26648  21137216.63348
  20601015.688 7 -23579466.399 7 -16161571.19048  20601010.95748
  23318218.953 3  -1451973.565 3   -735778.86946  23318217.27046
  20371664.750 7 -23975750.393 7 -17524082.06249  20371659.07849
  22322756.797 5 -17076303.485 5 -12199781.50447  22322752.71147
  21077796.484 6 -17818201.433 6 -12801335.32848  21077790.40248
  20660618.680 7 -15585855.787 7 -17414572.77349  20660614.35949
 24 11 23  0 14  0.0000000  0  9G02G07G13G14G15G17G19G22G30         
  23613136.26611                                
  22462518.367 6 -12003620.130 6 -10286688.21348  22462515.10248
  21133601.273 7 -10603325.516 7  -6877559.85748  21133596.01248
  20603129.406 6 -23568358.790 6 -16152915.89748  20603124.55948
  23309453.430 3  -1498045.118 3   -771678.69846  23309449.87146
  20365058.820 6 -24010462.148 6 -17551130.12649  20365053.91449
  22304991.531 5 -17169664.696 5 -12272530.33447  22304986.80147
  21076630.680 6 -17824328.848 6 -12806109.91148  21076624.83248
  20665300.273 7 -15561252.146 7 -17395401.09749  20665295.77749
 24 11 23  0 14 30.0000000  0  8G07G13G14G15G17G19G22G30            
  22475242.789 6 -11936755.905 6 -10234586.24548  22475238.87948
  21130094.789 7 -10621749.933 7  -6891916.51848  21130090.17648
  20605278.953 6 -23557062.384 6 -16144113.48748  20605273.81348
  23300786.938 1  -1543570.273 1   -807152.78446  23300786.71946
  20358555.680 6 -24044637.676 6 -17577760.36949  20358550.30149
  22287277.500 6 -17262755.215 6 -12345068.21647  22287272.53547
  21075502.750 6 -17830255.786 6 -12810728.26548  21075496.43448
  20670060.125 7 -15536238.773 7 -17375910.15449  20670056.56649
 24 11 23  0 15  0.0000000  0  8G07G13G14G15G17G19G22G30            
  22488028.711 6 -11869565.288 6 -10182229.95448  22488024.33248
  21126703.367 7 -10639573.636 7  -6905805.07948  21126698.22748
  20607463.984 6 -23545579.219 6 -16135165.53848  20607458.60548
  23292228.438 3  -1588549.477 3   -842201.40846  23292226.75446
  20352153.617 6 -24078278.035 6 -17603973.57849  20352148.71149
  22269614.570 6 -17355574.229 6 -12417394.53847  22269609.19147
  21074412.203 6 -17835984.707 6 -12815192.32448  21074406.64848
  20674897.742 7 -15510816.471 7 -17356100.56949  20674894.12549
 24 11 23  0 15 30.0000000  0  8G07G13G14G15G17G19G22G30            
  22500876.375 6 -11802047.916 6 -10129619.07348  22500871.52748
  21123426.281 7 -10656795.103 7  -6919224.36648  21123420.66848
  20609684.555 6 -23533909.181 6 -16126071.97548  20609678.94148
  23283774.305 4  -1632980.603 4   -876822.94046  23283771.44946
  20345854.695 6 -24111381.624 6 -17629768.52949  20345848.61349
  22252003.844 6 -17448119.296 6 -12489507.40947  22251997.41047
  21073360.133 6 -17841515.469 6 -12819501.97548  21073354.10948
  20679813.242 7 -15484984.057 7 -17335971.40449  20679809.39149
 24 11 23  0 16  0.0000000  0  9G02G07G13G14G15G17G19G22G30         
  23621103.04711    507257.14011                
  22513785.477 6 -11734210.476 6 -10076758.80848  22513780.09848
  21120263.023 7 -10673420.012 7  -6932178.82848  21120257.00048
  20611939.773 6 -23522059.049 6 -16116838.07548  20611934.57048
  23275422.000 2  -1676868.634 2   -911021.25846  23275420.08246
  20339655.586 6 -24143954.236 6 -17655149.72549  20339650.14849
  22234443.609 6 -17540394.253 6 -12561409.80447  22234438.17247
  21072343.984 6 -17846855.474 6 -12823662.96248  21072338.19548
  20684805.945 7 -15458746.999 7 -17315526.93949  20684803.09049
 24 11 23  0 16 30.0000000  0  9G02G07G13G14G15G17G19G22G30         
  23623336.719 2    518989.870 2                
  22526757.125 6 -11666041.906 6 -10023640.50447  22526751.92247
  21117215.102 7 -10689436.497 7  -6944659.17148  21117209.43048
  20614231.367 6 -23510018.042 6 -16107455.44648  20614225.93048
  23267173.836 1  -1720200.660 1   -944786.45946  23267174.90646
  20333560.398 6 -24175984.350 6 -17680108.20549  20333555.43449
  22216938.273 6 -17632385.204 6 -12633090.94547  22216932.77747
  21071366.242 6 -17851994.190 6 -12827667.12948  21071360.10248
  20689878.203 6 -15432093.478 6 -17294757.96249  20689874.23449
 24 11 23  0 17  0.0000000  0  9G02G07G13G14G15G17G19G22G30         
  23625663.820 1    531228.959 1                
  22539791.461 6 -11597548.608 6  -9970269.17148  22539787.37548
  21114281.750 7 -10704849.954 7  -6956669.63248  21114276.07848
  20616557.875 6 -23497792.730 6 -16097929.20048  20616552.32048
  23259035.461 3  -1762981.756 3   -978122.29946  23259033.13346
  20327568.625 7 -24207477.608 7 -17704648.36149  20327562.07449
  22199485.055 5 -17724096.584 5 -12704554.22047  22199479.44147
  21070425.188 6 -17856938.527 6 -12831519.82848  21070419.10548
  20695028.055 7 -15405028.948 7 -17273668.72549  20695025.14149
 24 11 23  0 17 30.0000000  0  9G02G07G13G14G15G17G19G22G30         
  23628091.188 4    543975.012 4                
  22552887.031 6 -11528730.810 6  -9916644.96348  22552884.05948
  21111464.031 7 -10719659.404 7  -6968209.43048  21111458.12548
  20618919.273 6 -23485383.395 6 -16088259.56448  20618913.71948
  23250999.328 3  -1805210.356 3  -1011027.65246  23250997.46946
  20321677.359 6 -24238433.265 6 -17728769.60849  20321671.74649
  22182087.828 6 -17815525.870 6 -12775797.67947  22182081.51247
  21069520.742 6 -17861689.258 6 -12835221.66448  21069514.83648
  20700256.992 7 -15377552.551 7 -17252258.54349  20700253.14149
 24 11 23  0 18  0.0000000  0  9G02G07G13G14G15G17G19G22G30         
  23630612.648 3    557227.891 3  -1198383.98855  23630606.56655
  22566043.391 5 -11459589.995 5  -9862769.03648  22566040.59448
  21108760.367 7 -10733865.384 7  -6979278.99548  21108755.10548
  20621315.414 7 -23472791.491 7 -16078447.66948  20621309.97748
  23243068.164 2  -1846886.369 2  -1043502.35646  23243067.12546
  20315889.133 6 -24268851.761 6 -17752472.29249  20315882.52349
  22164742.867 6 -17906671.596 6 -12846820.14547  22164737.19547
  21068653.148 6 -17866248.417 6 -12838774.22648  21068647.24248
  20705564.141 7 -15349664.704 7 -17230527.74549  20705560.28949
 24 11 23  0 18 30.0000000  0  9G02G07G13G14G15G17G19G22G30         
  23633230.273 2    570990.030 2  -1187660.20745  23633225.48445
  22579263.070 6 -11390123.639 6  -9808639.44148  22579259.80548
  21106172.063 7 -10747464.671 7  -6989875.81748  21106167.21548
  20623746.547 6 -23460014.812 6 -16068491.79448  20623740.58248
  23235242.742 1  -1888005.502 1  -1075543.17846  23235242.34846
  20310203.711 7 -24298729.728 7 -17775753.78249  20310197.16049
  22147453.945 6 -17997529.307 6 -12917618.23347  22147448.50847
  21067822.930 6 -17870613.815 6 -12842175.78548  21067816.55548
  20710949.398 7 -15321362.124 7 -17208473.78649  20710945.54749
 24 11 23  0 19  0.0000000  0  9G02G07G13G14G15G17G19G22G30         
  23635946.047 1    585261.070 1  -1176539.87145  23635942.19545
  22592544.633 6 -11320333.420 6  -9754257.49648  22592540.66448
  21103699.320 7 -10760457.683 7  -7000000.19748  21103695.00048
  20626213.180 6 -23447054.736 6 -16058392.99148  20626207.27348
  23227521.727 1  -1928567.731 1  -1107150.04746  23227523.32446
  20304620.922 6 -24328067.820 6 -17798614.59149  20304614.48849
  22130218.531 6 -18088098.002 6 -12988191.13247  22130214.38747
  21067027.789 6 -17874787.170 6 -12845427.70348  21067022.46948
  20716414.156 6 -15292645.091 6 -17186096.86649  20716410.36349
 24 11 23  0 19 30.0000000  0  9G02G07G13G14G15G17G19G22G30         
  23638758.563 1    600038.439 1  -1165024.99045  23638755.18045
  22605886.766 6 -11250221.694 6  -9699625.06348  22605881.91848
  21101341.539 7 -10772846.076 7  -7009653.46748  21101337.39548
  20628713.453 6 -23433914.175 6 -16048153.57048  20628707.95748
  23219911.938 3  -1968574.323 3  -1138323.94746  23219909.78546
  20299140.430 6 -24356868.066 6 -17821056.28849  20299133.99649
  22113039.336 6 -18178376.966 6 -13058538.27647  22113034.60547
  21066269.914 6 -17878772.195 6 -12848532.87248  21066263.59848
  20721957.664 6 -15263515.541 6 -17163398.51649  20721953.75449
 24 11 23  0 20  0.0000000  0  9G02G07G13G14G15G17G19G22G30         
  23641667.016 2    615321.445 2  -1153116.13545  23641663.57445
  22619289.320 6 -11179790.237 6  -9644743.48448  22619285.58648
  21099099.578 7 -10784630.970 7  -7018836.45648  21099094.61348
  20631247.422 6 -23420594.879 6 -16037774.88248  20631241.92648
  23212403.938 4  -2008025.594 4  -1169065.02947  23212402.37147
  20293761.961 6 -24385131.325 6 -17843079.55449  20293756.11349
  22095914.805 6 -18268366.121 6 -13128659.59247  22095910.36747
  21065547.406 6 -17882570.747 6 -12851492.74648  21065540.97348
  20727579.188 7 -15233974.214 7 -17140379.29849  20727575.51249
 24 11 23  0 20 30.0000000  0  9G02G07G13G14G15G17G19G22G30         
  23644672.313 2    631112.839 2  -1140811.08845  23644667.75845
  22632752.711 6 -11109036.692 6  -9589610.90348  22632748.62548
  21096972.641 7 -10795808.620 7  -7027546.28648  21096967.20348
  20633817.156 6 -23407094.347 6 -16027254.97348  20633811.66048
  23205003.258 3  -2046917.200 3  -1199370.05946  23205001.75046
  20288485.750 6 -24412854.160 6 -17864681.72549  20288479.90249
  22078846.445 6 -18358060.154 6 -13198550.96047  22078841.77347
  21064860.078 6 -17886180.648 6 -12854305.61448  21064854.28948
  20733279.734 7 -15204017.557 7 -17117036.46049  20733276.05949
 24 11 23  0 21  0.0000000  0  9G02G07G13G14G15G17G19G22G30         
  23647772.867 1    647414.169 1  -1128108.66745  23647770.18845
  22646277.648 6 -11037960.966 6  -9534227.27748  22646273.73848
  21094961.047 7 -10806377.905 7  -7035782.06048  21094955.78548
  20636420.781 6 -23393412.105 6 -16016593.46048  20636414.75848
  23197709.125 2  -2085247.090 2  -1229237.42746  23197708.14546
  20283313.406 6 -24440035.337 6 -17885861.80149  20283307.61749
  22061834.633 6 -18447456.125 6 -13268210.06447  22061829.37147
  21064208.523 6 -17889601.844 6 -12856971.42448  21064202.91048
  20739059.352 7 -15173644.178 7 -17093368.90249  20739055.91049
 24 11 23  0 21 30.0000000  0  9G02G07G13G14G15G17G19G22G30         
  23650972.148 3    664223.222 3  -1115010.63345  23650969.11745
  22659863.414 6 -10966565.277 6  -9478594.31548  22659859.73848
  21093064.953 7 -10816340.963 7  -7043545.45248  21093059.57448
  20639057.617 6 -23379550.819 6 -16005792.44748  20639052.77048
  23190521.789 1  -2123016.349 1  -1258668.01546  23190520.69146
  20278243.563 6 -24466676.920 6 -17906621.42349  20278237.59849
  22044880.102 6 -18536554.130 6 -13337636.98847  22044874.37147
  21063593.336 6 -17892837.635 6 -12859492.77448  21063586.72748
  20744917.703 7 -15142855.795 7 -17069377.96149  20744914.67249
 24 11 23  0 22  0.0000000  0  9G02G07G13G14G15G17G19G22G30         
  23654267.211 3    681540.967 3  -1101516.25345  23654264.76645
  22673509.602 5 -10894848.819 5  -9422711.41348  22673507.33248
  21091285.070 7 -10825695.807 7  -7050834.92748  21091280.45748
  20641729.977 7 -23365509.915 7 -15994851.46248  20641724.89548
  23183440.555 2  -2160223.269 2  -1287660.36546  23183438.93046
  20273277.344 6 -24492777.706 6 -17926959.64949  20273271.37949
  22027982.414 6 -18625351.139 6 -13406829.36347  22027976.50847
  21063012.602 6 -17895887.845 6 -12861869.51148  21063006.46148
  20750856.609 7 -15111650.846 7 -17045062.43249  20750852.93449
 24 11 23  0 22 30.0000000  0  9G02G07G13G14G15G17G19G22G30         
  23657659.430 2    699366.464 2                
  22687218.375 5 -10822813.541 5  -9366580.04948  22687215.28548
  21089620.055 7 -10834443.683 7  -7057651.42248  21089614.97348
  20644436.172 7 -23351291.074 7 -15983771.83648  20644430.44148
  23176468.227 3  -2196867.777 3  -1316214.41146  23176465.25446
  20268412.914 7 -24518338.544 7 -17946877.12449  20268406.77349
  22011142.516 6 -18713846.200 6 -13475786.44447  22011135.67247
  21062467.328 6 -17898754.153 6 -12864102.93948  21062460.66048
  20756873.391 6 -15080030.132 6 -17020422.92949  20756869.65649
 24 11 23  0 23  0.0000000  0  9G02G07G13G14G15G17G19G22G30         
  23661147.078 1    717700.958 1                
  22700987.672 5 -10750458.899 5  -9310199.85748  22700984.11348
  21088071.086 7 -10842583.034 7  -7063993.74447  21088066.29747
  20647175.852 7 -23336893.611 7 -15972553.03048  20647170.47348
  23169601.813 3  -2232947.760 3  -1344328.52646  23169599.19146
  20263651.539 7 -24543357.803 7 -17966372.60749  20263645.80949
  21994361.430 6 -18802036.138 6 -13544505.75147  21994353.76647
  21061957.000 7 -17901436.553 7 -12866193.08148  21061950.62548
  20762970.242 7 -15047992.073 7 -16995458.21949  20762966.56649
 24 11 23  0 23 30.0000000  0  9G02G07G13G14G15G17G19G22G30         
  23664733.891 3    736540.560 3                
  22714816.406 6 -10677789.660 6  -9253574.52748  22714812.90648
  21086637.805 7 -10850117.799 7  -7069864.95648  21086631.84048
  20649948.602 7 -23322321.957 7 -15961198.48348  20649943.69548
  23162844.063 3  -2268466.163 3  -1372005.07446  23162840.91446
  20258993.313 7 -24567839.955 7 -17985449.55049  20258986.64549
  21977635.289 6 -18889922.839 6 -13612988.80347  21977629.61747
  21061480.320 6 -17903939.841 6 -12868143.64048  21061474.35548
  20769145.344 7 -15015540.199 7 -16970171.04349  20769141.60949
 24 11 23  0 24  0.0000000  0  9G02G07G13G14G15G17G19G22G30         
  23668415.766 3    755889.868 3                
  22728706.117 6 -10604801.254 6  -9196700.52648  22728702.61748
  21085319.383 7 -10857042.852 7  -7075261.07348  21085314.59448
  20652755.742 7 -23307571.589 7 -15949704.67648  20652750.12948
  23156190.844 2  -2303417.265 2  -1399239.67146  23156191.03546
  20254437.602 7 -24591779.364 7 -18004103.56949  20254431.46149
  21960970.266 6 -18977499.267 6 -13681230.06347  21960964.53547
  21061038.945 7 -17906260.003 7 -12869951.52048  21061032.39548
  20775400.945 7 -14982669.154 7 -16944557.24749  20775396.74249
 24 11 23  0 24 30.0000000  0  9G02G07G13G14G15G17G19G22G30         
  23672194.703 3    775747.804 3   -948849.03455  23672188.73855
  22742655.039 5 -10531495.739 5  -9139579.39948  22742652.77048
  21084118.047 7 -10863358.833 7  -7080182.59148  21084112.90648
  20655595.969 7 -23292644.288 7 -15938073.00148  20655590.94548
  23149647.828 2  -2337801.358 2  -1426032.40447  23149647.96147
  20249985.234 7 -24615177.408 7 -18022335.77149  20249979.09449
  21944364.648 6 -19064764.977 6 -13749229.22947  21944358.33247
  21060631.563 6 -17908399.144 6 -12871618.36048  21060625.30548
  20781735.898 7 -14949379.829 7 -16918617.51049  20781731.98849
 24 11 23  0 25  0.0000000  0  9G02G07G13G14G15G17G19G22G30         
  23676069.359 4    796112.645 4   -932980.24246  23676064.62946
  22756664.914 5 -10457874.975 5  -9082212.63748  22756661.59048
  21083031.461 7 -10869067.156 7  -7084630.60048  21083026.32048
  20658469.727 7 -23277541.928 7 -15926304.92948  20658464.99648
  23143214.953 4  -2371619.253 4  -1452383.91647  23143212.50847
  20245634.898 7 -24638035.497 7 -18040147.21749  20245628.87549
  21927817.852 6 -19151719.223 6 -13816985.66647  21927810.65647
  21060258.945 6 -17910359.702 6 -12873146.01448  21060252.16048
  20788149.781 7 -14915673.379 7 -16892352.74749  20788146.75049
 24 11 23  0 25 30.0000000  0  9G02G07G13G14G15G17G19G22G30         
  23680040.781 3    816984.699 3   -916716.19745  23680036.69545
  22770734.766 6 -10383939.107 6  -9024600.32348  22770731.38348
  21082060.852 7 -10874167.636 7  -7088604.96248  21082055.64848
  20661377.180 7 -23262264.789 7 -15914400.66348  20661371.74248
  23136886.211 4  -2404870.157 4  -1478293.63446  23136884.35246
  20241388.805 7 -24660353.173 7 -18057537.55249  20241382.02049
  21911330.617 6 -19238359.568 6 -13884497.51447  21911322.36747
  21059919.125 7 -17912142.043 7 -12874534.82248  21059912.80948
  20794643.297 7 -14881549.158 7 -16865762.45449  20794640.20749
 24 11 23  0 26  0.0000000  0  9G02G07G13G14G15G17G19G22G30         
  23684109.898 4    838364.360 4   -900056.67345  23684105.87145
  22784864.602 6 -10309688.698 6  -8966742.94648  22784860.34048
  21081206.445 7 -10878660.024 7  -7092105.49748  21081200.89148
  20664317.289 7 -23246812.971 7 -15902360.27248  20664312.02748
  23130667.914 4  -2437552.106 4  -1503759.96646  23130664.53146
  20237244.547 7 -24682129.491 7 -18074506.05549  20237237.87949
  21894903.203 6 -19324683.641 6 -13951762.87547  21894895.53947
  21059614.445 7 -17913746.800 7 -12875785.26348  21059608.07048
  20801216.633 7 -14847006.540 7 -16838846.13949  20801213.48449
 24 11 23  0 26 30.0000000  0  9G02G07G13G14G15G17G19G22G30         
  23688274.570 2    860252.764 2   -883000.69745  23688270.13345
  22799052.289 5 -10235122.901 5  -8908639.82847  22799049.60947
  21080467.273 7 -10882542.718 7  -7095130.94848  21080462.19148
  20667291.234 7 -23231185.625 7 -15890183.09748  20667285.44548
  23124556.242 4  -2469663.242 4  -1528781.53746  23124554.44146
  20233203.195 7 -24703364.009 7 -18091052.38449  20233197.58249
  21878536.328 6 -19410688.389 6 -14018779.45247  21878530.12947
  21059343.164 6 -17915172.989 6 -12876896.57248  21059336.84848
  20807869.859 7 -14812043.969 7 -16811602.57549  20807866.41849
 24 11 23  0 27  0.0000000  0  9G02G07G13G14G15G17G19G22G30         
  23692534.984 1    882649.178 1   -865548.83245  23692533.41845
  22813302.164 5 -10160242.977 5  -8850291.93147  22813298.48847
  21079844.367 7 -10885816.125 7  -7097681.61648  21079838.93048
  20670298.398 6 -23215383.534 6 -15877869.77648  20670292.96148
  23118553.891 3  -2501203.561 3  -1553358.33747  23118553.26247
  20229265.711 7 -24724056.861 7 -18107176.64649  20229259.33649
  21862231.672 6 -19496372.609 6 -14085546.30047  21862225.53147
  21059105.250 6 -17916422.918 6 -12877870.52748  21059098.40648
  20814603.117 7 -14776661.423 7 -16784031.78649  20814599.55949
 24 11 23  0 27 30.0000000  0  9G02G07G13G14G15G17G19G22G30         
  23696894.469 1    905552.109 1   -847702.33345  23696892.02345
  22827611.508 6 -10085051.059 6  -8791700.91148  22827607.01248
  21079336.859 6 -10888481.646 6  -7099758.60248  21079331.48048
  20673338.359 7 -23199408.671 7 -15865421.81548  20673332.80548
  23112659.859 4  -2532173.404 4  -1577490.60847  23112659.81647
  20225430.852 7 -24744209.562 7 -18122879.98749  20225424.24249
  21845988.805 6 -19581735.336 6 -14152062.60748  21845982.66448
  21058900.734 7 -17917498.453 7 -12878708.58648  21058893.65648
  20821415.664 7 -14740860.117 7 -16756134.67949  20821411.63749
 24 11 23  0 28  0.0000000  0  9G02G07G13G14G15G17G19G22G30         
  23701350.797 3    928960.359 3   -829462.02545  23701345.59445
  22841978.781 5 -10009548.614 5  -8732867.89847  22841975.10547
  21078945.500 7 -10890540.291 7  -7101362.73048  21078939.59448
  20676410.656 7 -23183262.450 7 -15852840.33048  20676405.33648
  23106875.344 4  -2562573.281 4  -1601178.74347  23106875.77047
  20221697.805 7 -24763822.499 7 -18138162.75049  20221691.72349
  21829805.211 6 -19666775.375 6 -14218327.47248  21829799.89148
  21058728.484 7 -17918401.150 7 -12879411.96048  21058722.16848
  20828307.977 7 -14704640.843 7 -16727911.87249  20828303.89149
 24 11 23  0 28 30.0000000  0  9G02G07G13G14G15G17G19G22G30         
  23705900.750 1    952874.782 1   -810827.24245  23705896.02045
  22856404.398 4  -9933735.059 4  -8673792.42047  22856401.89547
  21078669.516 7 -10891990.677 7  -7102492.86248  21078663.84448
  20679515.508 7 -23166944.060 7 -15840124.68648  20679510.77748
  23101199.508 5  -2592401.501 5  -1624421.41747  23101198.76247
  20218068.344 7 -24782895.291 7 -18153024.62049  20218062.43849
  21813685.078 6 -19751490.216 6 -14284338.93948  21813678.99648
  21058589.703 6 -17919130.916 6 -12879980.59648  21058583.32848
  20835279.922 7 -14668002.069 7 -16699362.19549  20835276.65649
 24 11 23  0 29  0.0000000  0  9G02G07G13G14G15G17G19G22G30         
  23710546.688 1    977294.660 1   -791798.64145  23710543.24645
  22870890.477 4  -9857611.888 4  -8614475.67647  22870887.73847
  21078509.680 7 -10892833.456 7  -7103149.55948  21078503.89148
  20682653.719 6 -23150454.271 6 -15827275.48948  20682648.39848
  23095632.773 4  -2621657.335 4  -1647218.06747  23095631.03147
  20214541.961 7 -24801428.417 7 -18167465.97349  20214535.58649
  21797625.789 6 -19835878.094 6 -14350095.62147  21797619.29747
  21058482.930 6 -17919688.991 6 -12880415.44648  21058477.08248
  20842332.180 7 -14630943.870 7 -16670485.70149  20842328.68049
 24 11 23  0 29 30.0000000  0  9G02G07G13G14G15G17G19G22G30         
  23715289.547 1   1002222.767 1                
  22885436.148 5  -9781177.058 5  -8554916.12347  22885433.11747
  21078464.539 7 -10893066.217 7  -7103330.90948  21078459.45748
  20685825.164 7 -23133791.058 7 -15814291.13548  20685819.60948
  23090175.461 4  -2650338.020 4  -1669566.60447  23090172.84047
  20211118.852 7 -24819418.939 7 -18181484.52049  20211112.00849
  21781630.320 6 -19919934.391 6 -14415593.95347  21781622.71547
  21058410.000 6 -17920073.653 6 -12880715.17448  21058403.85948
  20849464.055 7 -14593463.633 7 -16641280.31549  20849460.49649
 24 11 23  0 30  0.0000000  0  9G02G07G13G14G15G17G19G22G30         
  23720130.438 2   1027653.961 2                
  22900040.445 5  -9704435.847 5  -8495117.85947  22900036.30147
  21078535.523 7 -10892693.680 7  -7103040.60048  21078530.32048
  20689027.922 7 -23116959.254 7 -15801175.41548  20689022.13348
  23084826.703 4  -2678447.265 4  -1691469.82547  23084823.14547
  20207797.352 7 -24836872.233 7 -18195084.45249  20207790.97749
  21765697.164 6 -20003661.925 6 -14480836.06047  21765689.91047
  21058368.813 6 -17920290.345 6 -12880883.98048  21058362.43848
  20856675.844 7 -14555565.548 7 -16611749.33749  20856672.34449
 24 11 23  0 30 30.0000000  0  9G02G07G13G14G15G17G19G22G30         
  23725066.42211   -521829.03411                
  22914702.039 5  -9627386.025 5  -8435079.13647  22914697.95347
  21078722.188 7 -10891712.914 7  -7102276.35948  21078716.45748
  20692263.383 6 -23099956.329 6 -15787926.34448  20692257.65248
  23079586.719 5  -2705981.603 5  -1712925.07947  23079583.62947
  20204579.164 7 -24853785.142 7 -18208263.30449  20204572.96549
  21749828.258 6 -20087055.675 6 -14545818.09847  21749821.12147
  21058360.266 6 -17920336.502 6 -12880919.92948  21058353.59848
  20863968.008 7 -14517246.429 7 -16581890.29449  20863964.27349
 24 11 23  0 31  0.0000000  0  9G02G07G13G14G15G17G19G22G30         
  23730096.289 1   -495386.013 1                
  22929421.313 4  -9550027.897 4  -8374800.13247  22929419.10247
  21079024.891 7 -10890123.723 7  -7101038.00948  21079018.92648
  20695531.453 6 -23082782.173 6 -15774543.85948  20695526.13348
  23074456.305 4  -2732939.908 4  -1733931.48247  23074453.33247
  20201463.250 7 -24870157.090 7 -18221020.62849  20201457.46149
  21734022.945 6 -20170113.464 6 -14610538.35547  21734016.62947
  21058383.430 7 -17920212.885 7 -12880823.55648  21058377.64148
  20871340.172 7 -14478505.657 7 -16551702.68449  20871336.26249
 24 11 23  0 31 30.0000000  0  9G02G07G13G14G15G17G19G22G30         
  23735226.039 1   -468438.664 1                
  22944201.945 5  -9472363.034 5  -8314282.14947  22944198.97347
  21079442.336 6 -10887927.203 6  -7099326.40348  21079436.89848
  20698832.070 7 -23065438.356 7 -15761029.14548  20698825.81348
  23069435.406 4  -2759322.851 4  -1754489.52147  23069432.78547
  20198450.570 7 -24885989.531 7 -18233357.55749  20198444.43049
  21718280.492 6 -20252834.541 6 -14674996.23548  21718275.64548
  21058438.484 6 -17919921.276 6 -12880596.29148  21058432.10948
  20878792.375 7 -14439344.174 7 -16521187.26849  20878787.99649
 24 11 23  0 32  0.0000000  0  9G02G07G13G14G15G17G19G22G30         
  23740449.52311   -440987.03511                
  22959038.930 5  -9394392.294 5  -8253525.83147  22959035.43047
  21079975.789 7 -10885123.666 7  -7097141.81148  21079971.23448
  20702164.477 6 -23047925.145 6 -15747382.45548  20702158.80548
  23064523.109 4  -2785129.916 4  -1774598.82947  23064522.18847
  20195541.070 7 -24901282.718 7 -18245274.27549  20195534.28549
  21702604.070 6 -20335216.967 6 -14739190.24548  21702599.86748
  21058527.281 7 -17919462.467 7 -12880238.71848  21058519.55948
  20886324.695 7 -14399761.771 7 -16490343.84949  20886320.84449
 24 11 23  0 32 30.0000000  0  9G02G07G13G14G15G17G19G22G30         
  23745769.336 1   -413032.513 1                
  22973934.086 5  -9316117.715 5  -8192532.70447  22973930.93847
  21080624.859 7 -10881714.326 7  -7094485.15648  21080619.59848
  20705528.445 6 -23030243.975 6 -15733604.86348  20705523.53948
  23059721.250 3  -2810361.327 3  -1794259.58447  23059720.56347
  20192732.773 7 -24916037.978 7 -18256771.83449  20192725.93049
  21686992.352 6 -20417259.907 6 -14803119.71548  21686986.56348
  21058644.430 7 -17918838.379 7 -12879752.36048  21058638.28948
  20893936.305 6 -14359759.310 6 -16459173.10749  20893933.85949
 24 11 23  0 33  0.0000000  0  9G02G07G13G14G15G17G19G22G30         
  23751186.750 1   -384575.436 1                
  22988887.672 5  -9237540.053 5  -8131303.40247  22988883.64547
  21081389.313 7 -10877699.161 7  -7091356.43648  21081384.05148
  20708925.688 6 -23012394.941 6 -15719696.48948  20708919.78148
  23055031.688 4  -2835016.632 4  -1813471.43347  23055029.30147
  20190026.719 7 -24930255.117 7 -18267850.07249  20190020.57849
  21671444.727 6 -20498960.845 6 -14866782.69048  21671438.46948
  21058795.289 7 -17918049.263 7 -12879137.42348  21058788.21148
  20901628.281 7 -14319336.380 7 -16427674.73149  20901625.54349
 24 11 23  0 33 30.0000000  0  9G02G07G13G14G15G17G19G22G30         
  23756697.71111                                
  23003900.461 5  -9158651.023 5  -8069831.45647  23003895.67247
  21082269.727 6 -10873069.887 6  -7087749.19748  21082264.82048
  20712355.656 6 -22994369.991 6 -15705651.04248  20712349.86748
  23050450.539 5  -2859087.007 5  -1832227.47547  23050448.27047
  20187425.086 7 -24943925.900 7 -18278502.58649  20187419.06349
  21655965.211 6 -20580309.936 6 -14930171.47548  21655957.95748
  21058978.055 7 -17917087.634 7 -12878388.06248  21058970.97748
  20909402.438 6 -14278484.470 6 -16395842.08349  20909399.64149
 24 11 23  0 34  0.0000000  0  8G07G13G14G15G17G19G22G30            
  23018966.844 5  -9079467.975 5  -8008130.41048  23018964.45748
  21083264.344 7 -10867843.438 7  -7083676.62148  21083259.61348
  20715815.820 6 -22976185.643 6 -15691481.36948  20715809.97348
  23045977.414 4  -2882588.196 4  -1850540.01447  23045976.49247
  20184924.680 7 -24957066.801 7 -18288742.19249  20184918.42249
  21640549.141 6 -20661321.312 6 -14993297.10047  21640541.77047
  21059190.734 6 -17915970.469 6 -12877517.48348  21059183.94948
  20917255.383 7 -14237219.610 7 -16363687.63649  20917251.70749
 24 11 23  0 34 30.0000000  0  8G07G13G14G15G17G19G22G30            
  23034092.539 5  -8999982.880 5  -7946193.98948  23034090.62148
  21084374.367 7 -10862011.127 7  -7079131.94348  21084369.22748
  20719308.188 7 -22957833.448 7 -15677180.91648  20719302.10548
  23041616.047 4  -2905510.992 4  -1868401.85947  23041614.94947
  20182526.672 7 -24969669.535 7 -18298562.45049  20182520.18049
  21625198.922 6 -20741984.478 6 -15056151.39447  21625192.19547
  21059433.930 6 -17914689.782 6 -12876519.47448  21059427.67248
  20925188.188 7 -14195532.927 7 -16331204.50649  20925184.33649
 24 11 23  0 35  0.0000000  0  8G07G13G14G15G17G19G22G30            
  23049275.297 4  -8920197.987 4  -7884023.96847  23049273.55547
  21085599.039 7 -10855574.964 7  -7074116.74848  21085593.30948
  20722831.820 7 -22939315.103 7 -15662750.99448  20722826.32448
  23037363.609 4  -2927856.392 4  -1885813.78047  23037362.04347
  20180229.813 7 -24981736.010 7 -18307964.84649  20180224.43449
  21609915.016 6 -20822298.999 6 -15118734.03347  21609908.52347
  21059708.133 7 -17913247.652 7 -12875395.69248  21059701.81648
  20933200.703 7 -14153425.720 7 -16298393.70549  20933197.20349
 24 11 23  0 35 30.0000000  0  9G02G07G13G14G15G17G19G22G30         
  23779693.87511    614062.29111                
  23064512.727 5  -8840127.060 5  -7821631.12447  23064509.69547
  21086935.750 7 -10848548.260 7  -7068641.39548  21086930.43048
  20726384.680 6 -22920644.067 6 -15648202.11048  20726379.41848
  23033218.750 4  -2949637.009 4  -1902785.59747  23033217.65247
  20178033.742 7 -24993279.202 7 -18316959.48749  20178027.19149
  21594695.523 6 -20902276.227 6 -15181053.84348  21594689.38348
  21060010.828 7 -17911657.991 7 -12874156.96048  21060004.27748
  20941290.922 7 -14110910.956 7 -16265265.32149  20941287.24649
 24 11 23  0 36  0.0000000  0  9G02G07G13G14G15G17G19G22G30         
  23785682.07011                                
  23079811.805 5  -8759730.303 5  -7758984.36447  23079808.24647
  21088393.383 7 -10840890.254 7  -7062674.11848  21088387.65248
  20729974.766 6 -22901779.566 6 -15633502.48048  20729969.09448
  23029188.008 3  -2970811.421 3  -1919285.01847  23029187.96547
  20175944.375 7 -25004259.092 7 -18325515.20049  20175938.17649
  21579548.539 6 -20981873.033 6 -15243077.23147  21579541.81347
  21060349.703 7 -17909880.704 7 -12872772.00648  21060342.21548
  20949466.742 7 -14067947.644 7 -16231787.41449  20949462.94949
 24 11 23  0 36 30.0000000  0  9G02G07G13G14G15G17G19G22G30         
  23791760.75811    677496.90011                
  23095163.102 5  -8679058.881 5  -7696123.58147  23095159.25047
  21089961.281 7 -10832651.931 7  -7056254.63148  21089955.49248
  20733591.914 7 -22882772.492 7 -15618691.73448  20733586.18448
  23025264.086 3  -2991430.267 3  -1935351.57747  23025264.27747
  20173952.602 7 -25014726.138 7 -18333671.29649  20173946.10949
  21564465.258 6 -21061138.197 6 -15304842.19148  21564458.47348
  21060713.023 7 -17907967.017 7 -12871280.78348  21060706.12148
  20957718.422 7 -14024586.092 7 -16197999.20849  20957714.45349
 24 11 23  0 37  0.0000000  0  9G02G07G13G14G15G17G19G22G30         
  23797939.523 2    709960.971 2                
  23110573.625 6  -8598080.996 6  -7633024.00448  23110569.48048
  21091644.828 6 -10823801.289 6  -7049358.01848  21091639.80548
  20737242.039 6 -22863590.517 6 -15603744.69848  20737236.30948
  23021453.313 5  -3011460.196 5  -1950959.22947  23021452.09847
  20172064.141 7 -25024647.998 7 -18341402.56849  20172057.94149
  21549451.578 6 -21140037.464 6 -15366322.02948  21549444.03148
  21061109.523 6 -17905884.562 6 -12869658.05448  21061103.14848
  20966052.297 7 -13980793.800 7 -16163875.36049  20966047.50849
 24 11 23  0 37 30.0000000  0  9G02G07G13G14G15G17G19G22G30         
  23804211.883 3    742921.822 3                
  23126039.539 6  -8516808.363 6  -7569694.71948  23126035.51248
  21093443.383 6 -10814349.833 6  -7041993.23148  21093438.47748
  20740923.031 6 -22844244.825 6 -15588670.10648  20740916.83248
  23017753.359 5  -3030912.232 5  -1966116.55147  23017750.85547
  20170278.500 7 -25034035.976 7 -18348717.82349  20170271.01249
  21534505.656 6 -21218579.934 6 -15427523.86048  21534497.69948
  21061535.977 7 -17903645.292 7 -12867913.12948  21061529.42648
  20974465.258 7 -13936581.634 7 -16129424.33949  20974461.11349
 24 11 23  0 38  0.0000000  0  9G02G07G13G14G15G17G19G22G30         
  23810578.805 3    776378.840 3                
  23141561.188 6  -8435241.974 6  -7506136.55148  23141557.57048
  21095356.523 6 -10804298.018 6  -7034160.64648  21095351.61748
  20744635.742 6 -22824735.866 6 -15573468.29448  20744629.36748
  23014161.906 5  -3049785.989 5  -1980823.29347  23014159.16847
  20168592.922 7 -25042890.947 7 -18355617.74149  20168586.02049
  21519627.031 6 -21296764.122 6 -15488446.48848  21519620.01248
  21061991.844 7 -17901250.029 7 -12866046.66148  21061984.29748
  20982957.492 7 -13891949.686 7 -16094646.21449  20982954.34449
 24 11 23  0 38 30.0000000  0  9G02G07G13G14G15G17G19G22G30         
  23817040.328 4    810331.931 4                
  23157137.680 6  -8353382.711 6  -7442350.18448  23157135.00048
  21097383.820 7 -10793645.987 7  -7025860.35748  21097378.32448
  20748379.227 6 -22805063.545 6 -15558139.19348  20748373.55548
  23010679.195 5  -3068081.299 5  -1995079.30448  23010678.33248
  20167008.938 7 -25051213.360 7 -18362102.69349  20167002.32849
  21504817.414 6 -21374587.693 6 -15549088.13148  21504810.51248
  21062476.359 6 -17898699.196 6 -12864058.96948  21062470.04348
  20991530.742 6 -13846897.622 6 -16059540.71449  20991528.18049
 24 11 23  0 39  0.0000000  0 10G02G06G07G13G14G15G17G19G22G30      
  23823597.039 3    844781.518 3                
  25088212.08611   -909585.00511   -538565.38856  25088216.73056
  23172771.422 5  -8271230.178 5  -7378335.25848  23172767.86348
  21099525.063 7 -10782393.357 7  -7017092.05748  21099519.44948
  20752154.266 6 -22785226.929 6 -15542682.06448  20752148.06648
  23007308.859 5  -3085796.690 5  -2008883.43747  23007306.53147
  20165526.742 7 -25059002.124 7 -18368171.81849  20165520.42649
  21490077.453 6 -21452047.908 6 -15609446.63848  21490070.66848
  21062992.344 6 -17895992.330 6 -12861949.66848  21062984.91448
  21000184.523 6 -13801424.284 6 -16024106.95149  21000181.49249
 24 11 23  0 39 30.0000000  0 10G02G06G07G13G14G15G17G19G22G30      
  23830243.906 1    879717.800 1                
  25069278.305 1  -1009082.253 1   -616095.19746  25069283.53546
  23188457.477 5  -8188794.328 5  -7314099.58947  23188454.79747
  21101778.820 7 -10770549.854 7  -7007863.36248  21101773.20748
  20755957.727 6 -22765235.575 6 -15527104.36448  20755952.34848
  23004046.695 5  -3102941.004 5  -2022242.53847  23004043.72347
  20164144.422 7 -25066266.885 7 -18373832.63449  20164137.87149
  21475404.672 6 -21529152.100 6 -15669527.73148  21475397.94548
  21063534.781 7 -17893139.414 7 -12859726.58948  21063527.29348
  21008915.719 6 -13755538.896 6 -15988352.11149  21008912.74649
 24 11 23  0 40  0.0000000  0 10G02G06G07G13G14G15G17G19G22G30      
  23836987.320 1    915157.347 1                
  25050318.34411  -1108719.51411   -693734.13156  25050321.69956
  23204201.203 5  -8106058.968 5  -7249630.49747  23204198.99247
  21104148.125 7 -10758098.934 7  -6998161.35048  21104141.80948
  20759795.094 6 -22745072.515 6 -15511392.86548  20759789.01248
  23000895.211 5  -3119497.167 5  -2035143.38147  23000893.41047
  20162864.313 7 -25072991.269 7 -18379072.36749  20162858.40649
  21460803.422 6 -21605881.399 6 -15729316.70448  21460797.04748
  21064108.969 7 -17890124.014 7 -12857376.89048  21064101.71548
  21017729.617 7 -13709224.298 7 -15952262.82049  21017726.70349
 24 11 23  0 40 30.0000000  0 10G02G06G07G13G14G15G17G19G22G30      
  23843825.89811   -624328.30911                
  25031327.39811  -1208501.72511   -771485.95056  25031332.98056
  23220000.672 5  -8023032.520 5  -7184934.59348  23219998.05148
  21106631.820 7 -10745048.868 7  -6987992.46148  21106625.62148
  20763663.219 6 -22724745.387 6 -15495553.53248  20763657.19548
  22997855.055 5  -3135472.306 5  -2047591.47547  22997852.19947
  20161686.039 7 -25079183.206 7 -18383897.21149  20161680.54349
  21446272.578 6 -21682241.574 6 -15788818.03148  21446265.44148
  21064711.969 6 -17886953.984 6 -12854906.70148  21064705.47748
  21026623.711 6 -13662488.046 6 -15915844.96449  21026620.38749
 24 11 23  0 41  0.0000000  0 10G02G06G07G13G14G15G17G19G22G30      
  23850754.69511                                
  25012310.836 1  -1308427.117 1   -849349.38946  25012317.88346
  23235855.156 5  -7939716.751 5  -7120013.26447  23235853.12147
  21109228.906 7 -10731400.989 7  -6977357.75248  21109222.82448
  20767561.484 6 -22704255.468 6 -15479587.34248  20767556.10548
  22994925.422 5  -3150867.190 5  -2059587.40948  22994922.85948
  20160608.969 7 -25084843.724 7 -18388307.96549  20160602.82849
  21431811.828 6 -21758231.714 6 -15848031.03448  21431804.57448
  21065344.500 6 -17883631.229 6 -12852317.50748  21065337.48048
  21035597.047 6 -13615331.133 6 -15879099.33049  21035593.37149
 24 11 23  0 41 30.0000000  0 10G02G06G07G13G14G15G17G19G22G30      
  23857784.711 2   -550975.502 2                
  24993267.06311                   -927319.04155  24993275.69555
  23251765.750 5  -7856108.443 5  -7054864.00847  23251762.42647
  21111940.492 7 -10717151.565 7  -6966254.30448  21111934.58648
  20771492.656 6 -22683598.514 6 -15463490.99648  20771487.10248
  22992106.875 5  -3165677.708 5  -2071128.00048  22992104.54748
  20159633.250 7 -25089969.338 7 -18392301.90649  20159627.22749
  21417422.953 6 -21833845.769 6 -15906950.96148  21417415.58248
  21066006.227 6 -17880151.701 6 -12849606.14148  21065998.68048
  21044651.430 6 -13567749.217 6 -15842022.54849  21044647.34449
 24 11 23  0 42  0.0000000  0  9G02G07G13G14G15G17G19G22G30         
  23864903.242 3   -513567.693 3                
  23267730.297 5  -7772221.858 5  -6989497.90648  23267726.62148
  21114763.352 6 -10702314.742 6  -6954693.13948  21114757.56348
  20775452.891 6 -22662788.068 6 -15447275.02148  20775447.27748
  22989397.070 5  -3179917.289 5  -2082223.71648  22989395.79748
  20158757.219 7 -25094574.166 7 -18395890.04449  20158751.07849
  21403103.742 6 -21909095.467 6 -15965586.98448  21403096.31348
  21066695.227 7 -17876529.583 7 -12846783.66648  21066688.20748
  21053784.313 6 -13519755.711 6 -15804625.00549  21053780.75449
 24 11 23  0 42 30.0000000  0 10G02G06G07G13G14G15G17G19G22G30      
  23872114.148 3   -475670.098 3  -2351730.36155  23872108.82855
  24955103.63311                                
  23283748.000 5  -7688050.368 5  -6923909.78948  23283743.38748
  21117700.133 6 -10686883.985 6  -6942669.15548  21117693.81648
  20779443.641 6 -22641816.862 6 -15430933.79048  20779437.79348
  22986798.164 6  -3193578.142 6  -2092868.48548  22986795.36748
  20157981.781 7 -25098651.434 7 -18399067.09449  20157974.93849
  21388854.984 6 -21983971.754 6 -16023932.04648  21388848.43448
  21067413.453 7 -17872757.943 7 -12843844.69248  21067406.60948
  21062996.656 6 -13471343.235 6 -15766901.01149  21062993.68449
 24 11 23  0 43  0.0000000  0 10G02G06G07G13G14G15G17G19G22G30      
  23879418.117 2   -437285.123 2  -2321819.89345  23879413.03545
  24935984.10911   -567060.05611   -986964.31556  24935988.57856
  23299817.523 4  -7603596.796 4  -6858101.84647  23299814.25847
