     2.11           OBSERVATION DATA    G (GPS)             RINEX VERSION / TYPE
teqc  2019Feb25     IGN-RGP             20191102 08:50:15UTCPGM / RUN BY / DATE
Linux 2.6.32-573.12.1.x86_64|x86_64|gcc|Linux 64|=+         COMMENT
teqc  2019Feb25     IGN-RGP             20191021 08:50:02UTCCOMMENT
teqc  2019Feb25     IGN-RGP             20191020 08:10:04UTCCOMMENT
teqc  2019Feb25     Administrateur RGP  20191020 08:10:04UTCCOMMENT
teqc  2019Feb25     Observatoire de Pari20191019 00:52:31UTCCOMMENT
Linux 2.6.32-573.12.1.x86_64|x86_64|gcc -static|Linux 64|=+ COMMENT
BIT 2 OF LLI FLAGS DATA COLLECTED UNDER A/S CONDITION       COMMENT
OPMT                                                        MARKER NAME
10001S006                                                   MARKER NUMBER
Automatic           OP                                      OBSERVER / AGENCY
02942               ASHTECH Z-XII3T     1L01-1D04           REC # / TYPE / VERS
00019               3S-02-TSADM     NONE                    ANT # / TYPE
  4202777.6220   171367.7610  4778659.9840                  APPROX POSITION XYZ
        0.0000        0.0000        0.0000                  ANTENNA: DELTA H/E/N
     1     1                                                WAVELENGTH FACT L1/2
     7    L1    L2    C1    P1    P2    S1    S2            # / TYPES OF OBSERV
    30.0000                                                 INTERVAL
 SNR is mapped to RINEX snr flag value [0-9]                COMMENT
  L1 & L2: min(max(int(snr_dBHz/6), 0), 9)                  COMMENT
pseudorange smoothing corrections not applied               COMMENT
Forced Modulo Decimation to 30 seconds                      COMMENT
teqc_2019 edited: GLONASS # 25 - 30 excluded                COMMENT
teqc_2019 edited: GLONASS # 25 - 30 excluded                COMMENT
teqc_2019 edited: GLONASS # 25 - 30 excluded                COMMENT
  2019    10    18     0     0    0.0000000     GPS         TIME OF FIRST OBS
                                                            END OF HEADER
 19 10 18  0  0  0.0000000  0  8G24G25G29G02G14G32G12G06
  -3827161.08744  -2943793.28246  23055168.923    23055169.6724   23055175.5794
        43.2004         40.6004
 -20071636.11047 -15619809.15147  20156062.443    20156061.9964   20156067.4034
        50.5004         47.7004
 -14956627.43345 -11619191.53447  21972827.777    21972827.7514   21972830.5774
        45.3004         42.6004
  -6173746.61544  -4788440.10946  23221799.988    23221800.2564   23221800.2084
        42.9004         40.2004
 -12218603.46043  -9503297.74646  22505320.495    22505320.8874   22505322.4794
        39.9004         37.4004
  -9745902.36445  -7584318.75147  21979843.878    21979843.9904   21979848.2434
        45.3004         42.5004
 -16997877.91546 -12363204.74047  21026905.576    21026905.6874   21026907.8374
        47.9004         45.2004
  -3115276.65243  -2412241.24546  23892932.002    23892931.5384   23892937.1944
        40.1004         37.6004
 19 10 18  0  0 30.0000000  0  8G24G25G29G02G14G32G12G06
  -3726994.00444  -2865741.02646  23074230.588    23074231.3594   23074237.2494
        43.4004         40.6004
 -20089599.14147 -15633806.32047  20152644.321    20152644.0454   20152649.0354
        50.7004         47.7004
 -15048950.22645 -11691131.36547  21955259.879    21955259.5054   21955261.8374
        45.5004         42.6004
  -6199657.93444  -4808630.74046  23216869.034    23216868.2654   23216869.1434
        42.9004         40.2004
 -12244020.85643  -9523103.52146  22500483.563    22500483.8754   22500485.9434
        40.1004         37.8004
  -9708459.95645  -7555142.85247  21986968.580    21986969.5034   21986973.3714
        45.5004         43.0004
 -16934372.22046 -12313719.79547  21038990.415    21038990.3854   21038991.8704
        47.9004         45.1004
  -3083376.53043  -2387384.01346  23899001.345    23899002.2684   23899009.1424
        40.3004         37.8004
 19 10 18  0  1  0.0000000  0  8G24G25G29G02G14G32G12G06
  -3626621.48544  -2787528.68446  23093332.572    23093331.8594   23093337.0084
        43.4004         40.6004
 -20107166.09847 -15647494.85547  20149300.918    20149300.6264   20149306.0444
        50.5004         47.5004
 -15140918.91745 -11762795.26147  21937757.406    21937757.5644   21937760.4884
        45.5004         42.5004
  -6225086.96944  -4828445.54946  23212030.086    23212029.3574   23212030.9434
        43.0004         40.4004
 -12268876.05343  -9542471.21946  22495754.169    22495753.3094   22495755.3924
        40.4004         38.1004
  -9670457.84245  -7525530.81947  21994200.396    21994200.5834   21994204.7604
        45.8004         42.8004
 -16870586.79646 -12264016.87047  21051127.853    21051128.3984   21051130.4554
        47.9004         45.2004
  -3050908.62344  -2362084.35046  23905181.462    23905181.3554   23905186.6444
        40.6004         38.1004
 19 10 18  0  1 30.0000000  0  8G24G25G29G02G14G32G12G06
  -3526044.15544  -2709156.72446  23112470.253    23112470.9094   23112475.5774
        43.0004         40.2004
 -20124336.88947 -15660874.68947  20146033.767    20146033.3064   20146038.5694
        50.5004         47.7004
 -15232531.47345 -11834181.65947  21920324.646    21920324.9984   21920327.8784
        45.5004         42.8004
  -6250032.53844  -4847883.64046  23207283.155    23207282.4644   23207284.3154
        43.0004         40.6004
 -12293168.33444  -9561400.27946  22491131.116    22491130.6984   22491133.2004
        40.8004         38.3004
  -9631897.66545  -7495483.93947  22001538.497    22001538.9264   22001542.7024
        45.5004         42.5004
 -16806523.01746 -12214097.05947  21063320.033    21063319.3774   21063320.7844
        47.9004         44.9004
  -3017873.87544  -2336342.96846  23911467.558    23911467.2034   23911472.4994
        40.6004         38.1004
 19 10 18  0  2  0.0000000  0  8G24G25G29G02G14G32G12G06
  -3425263.80044  -2630626.59146  23131648.823    23131648.4914   23131653.3604
        42.7004         39.9004
 -20141111.48747 -15673945.80447  20142841.733    20142841.2374   20142846.3564
        50.7004         47.5004
 -15323785.94945 -11905289.03747  21902960.306    21902959.2644   21902962.0134
        45.6004         42.8004
  -6274493.49844  -4866944.10146  23202627.333    23202626.6744   23202629.7194
        43.2004         40.4004
 -12316896.68944  -9579889.92046  22486615.539    22486615.5484   22486618.3674
        41.3004         38.8004
  -9592781.02745  -7465003.46047  22008982.029    22008982.6344   22008986.6014
        45.5004         42.8004
 -16742182.17546 -12163961.34247  21075562.506    21075562.9274   21075564.5914
        47.9004         45.1004
  -2984273.42143  -2310160.78946  23917861.069    23917862.0034   23917867.5234
        40.4004         37.8004
 19 10 18  0  2 30.0000000  0  8G24G25G29G02G14G32G12G06
  -3324282.37744  -2551939.75746  23150865.035    23150863.8014   23150869.4994
        42.5004         39.7004
 -20157489.87047 -15686708.17747  20139724.656    20139724.3044   20139729.5724
        50.7004         47.5004
 -15414680.06245 -11976115.62147  21885663.227    21885663.6514   21885665.6414
        45.6004         42.8004
  -6298468.74544  -4885626.10446  23198065.315    23198065.2184   23198067.2014
        43.2004         40.6004
 -12340060.11844  -9597939.36146  22482207.951    22482207.4664   22482210.4544
        41.8004         39.5004
  -9553109.59445  -7434090.67347  22016530.957    22016531.9424   22016536.0374
        45.8004         43.2004
 -16677565.33146 -12113610.56247  21087859.108    21087859.0154   21087860.7214
        47.9004         44.9004
  -2950108.22243  -2283538.55446  23924363.776    23924363.5914   23924368.0434
        40.1004         37.4004
 19 10 18  0  3  0.0000000  0  8G24G25G29G02G14G32G12G06
  -3223101.47844  -2473097.49246  23170117.168    23170117.8684   23170123.1214
        42.3004         39.5004
 -20173472.02347 -15699161.80147  20136683.508    20136683.3394   20136688.4034
        50.7004         47.7004
 -15505212.43845 -12046660.31847  21868435.943    21868436.1884   21868438.2424
        45.6004         42.8004
  -6321956.88745  -4903928.53446  23193596.128    23193595.9704   23193597.4604
        43.6004         41.1004
 -12362658.00444  -9615548.11546  22477907.909    22477907.3044   22477910.3414
        42.3004         39.7004
  -9512885.08445  -7402746.90447  22024185.463    22024185.7264   22024190.6454
        45.8004         42.8004
 -16612673.89946 -12063045.81447  21100207.200    21100207.3984   21100209.1874
        47.7004         44.9004
  -2915379.38243  -2256477.12746  23930971.008    23930970.8714   23930976.3504
        40.1004         37.3004
 19 10 18  0  3 30.0000000  0  9G24G25G29G02G14G32G12G06G31
  -3121722.15944  -2394100.62646  23189409.468    23189410.0314   23189414.2984
        42.2004         39.3004
 -20189057.92247 -15711306.64947  20133717.630    20133717.3294   20133722.8504
        50.7004         47.8004
 -15595380.25245 -12116920.94747  21851276.720    21851276.8504   21851279.1774
        45.6004         43.0004
  -6344956.93145  -4921850.62646  23189220.363    23189219.8324   23189219.9074
        43.7004         41.1004
 -12384689.76744  -9632715.73046  22473715.897    22473714.9994   22473717.4524
        42.7004         40.0004
  -9472109.15045  -7370973.46447  22031944.788    22031945.3434   22031949.6884
        45.6004         42.6004
 -16547509.11246 -12012268.06847  21112608.001    21112607.7294   21112609.7224
        47.7004         44.7004
  -2880087.94243  -2228977.29846  23937686.625    23937687.2714   23937690.8424
        39.7004         37.3004
   -250091.13653   -175137.39756  22994061.457    22994060.8874   22994062.0204
        38.2004         37.3004
 19 10 18  0  4  0.0000000  0  9G24G25G29G02G14G32G12G06G31
  -3020146.60044  -2314950.82646  23208737.995    23208739.5094   23208744.7814
        42.2004         39.5004
 -20204247.50847 -15723142.68747  20130827.205    20130827.2294   20130832.2044
        50.7004         47.8004
 -15685181.61645 -12186896.02647  21834187.882    21834187.9974   21834190.4154
        45.6004         42.8004
  -6367467.83245  -4939391.58346  23184935.933    23184935.3564   23184936.3684
        43.7004         40.7004
 -12406154.26544  -9649441.30546  22469631.048    22469631.2054   22469633.2494
        42.9004         40.2004
  -9430783.52945  -7338771.70447  22039808.717    22039808.9834   22039813.9184
        45.5004         42.5004
 -16482072.06146 -11961278.16347  21125060.385    21125060.1644   21125062.3274
        47.7004         44.9004
  -2844235.12743  -2201040.02746  23944509.860    23944508.7644   23944514.9734
        39.7004         37.1004
   -340513.30143   -245596.24246  22976853.453    22976854.1634   22976856.2034
        39.7004         37.8004
 19 10 18  0  4 30.0000000  0  9G24G25G29G02G14G32G12G06G31
  -2918376.34044  -2235649.33646  23228104.981    23228105.5324   23228111.2054
        42.2004         39.5004
 -20219040.80047 -15734669.92847  20128012.453    20128011.8124   20128017.1284
        50.8004         47.8004
 -15774614.92845 -12256584.30747  21817170.030    21817170.2694   21817172.2004
        45.8004         43.0004
  -6389488.59945  -4956550.58446  23180745.282    23180744.4694   23180745.6264
        43.6004         40.6004
 -12427050.97744  -9665724.46846  22465654.641    22465654.4284   22465656.4244
        43.2004         40.6004
  -9388910.01245  -7306143.00847  22047776.791    22047777.3524   22047781.6894
        45.5004         42.6004
 -16416364.18246 -11910077.21947  21137563.120    21137563.7724   21137566.3554
        47.7004         44.9004
  -2807822.07743  -2172666.23046  23951437.102    23951436.9734   23951443.9684
        39.4004         36.9004
   -430724.24054   -315890.47956  22959687.229    22959687.7904   22959688.9314
        40.6004         38.1004
 19 10 18  0  5  0.0000000  0  9G24G25G29G02G14G32G12G06G31
  -2816412.93344  -2156197.33146  23247508.837    23247508.2964   23247513.2554
        42.0004         39.3004
 -20233437.76247 -15745888.33347  20125272.570    20125272.2694   20125277.7544
        50.8004         47.8004
 -15863677.97445 -12325984.07247  21800221.855    21800221.9014   21800224.3964
        46.0004         43.2004
  -6411018.21844  -4973326.90046  23176647.494    23176647.6354   23176648.7884
        43.4004         40.7004
 -12447379.19444  -9681564.63146  22461786.448    22461785.9154   22461787.6044
        43.2004         40.6004
  -9346490.34745  -7273088.72047  22055849.322    22055849.8174   22055854.2944
        45.5004         42.6004
 -16350386.62446 -11858666.15347  21150118.657    21150119.0594   21150120.8914
        47.7004         44.7004
  -2770849.82643  -2143856.67246  23958473.455    23958473.3714   23958478.5244
        39.4004         36.9004
   -520721.95644   -386018.57546  22942561.523    22942561.5254   22942563.2544
        41.1004         38.6004
 19 10 18  0  5 30.0000000  0  9G24G25G29G02G14G32G12G06G31
  -2714257.92844  -2076596.03946  23266947.748    23266947.4814   23266954.4204
        42.0004         39.5004
 -20247438.43147 -15756797.94447  20122608.415    20122608.0574   20122613.5724
        50.8004         47.8004
 -15952368.64145 -12395093.67547  21783345.050    21783344.9084   21783347.0894
        46.0004         43.2004
  -6432055.47945  -4989719.55146  23172644.722    23172643.9414   23172645.1224
        43.6004         40.7004
 -12467138.32244  -9696961.36346  22458025.937    22458025.4334   22458027.8994
        43.2004         40.4004
  -9303526.29045  -7239610.25647  22064025.242    22064025.6304   22064030.2114
        45.3004         42.3004
 -16284140.73746 -11807045.98947  21162725.279    21162725.6784   21162727.2734
        47.7004         44.7004
  -2733319.74843  -2114612.43346  23965616.650    23965615.6464   23965620.4124
        39.7004         37.3004
   -610504.57544   -455979.05746  22925477.304    22925476.9434   22925477.4664
        41.5004         39.0004
 19 10 18  0  6  0.0000000  0  9G24G25G29G02G14G32G12G06G31
  -2611912.70844  -1996846.51446  23286422.846    23286422.6174   23286429.8124
        42.2004         39.3004
 -20261042.75847 -15767398.71447  20120019.372    20120019.3124   20120024.5234
        50.8004         47.8004
 -16040685.13145 -12463911.70147  21766538.395    21766538.2474   21766540.5144
        46.0004         43.2004
  -6452599.34545  -5005727.74246  23168736.199    23168735.3554   23168736.0444
        43.6004         40.7004
 -12486327.34944  -9711913.84946  22454374.348    22454373.7074   22454376.1734
        43.0004         40.2004
  -9260019.66545  -7205709.02247  22072303.469    22072303.6884   22072309.2194
        45.1004         42.1004
 -16217626.95746 -11755217.08947  21175382.502    21175382.3374   21175384.0584
        47.7004         44.7004
  -2695232.86943  -2084934.36746  23972862.626    23972863.5534   23972867.7484
        39.7004         37.3004
   -700070.19244   -525770.45746  22908433.141    22908432.9624   22908433.9954
        42.0004         39.5004
 19 10 18  0  6 30.0000000  0  9G24G25G29G02G14G32G12G06G31
  -2509379.29044  -1916950.36046  23305934.822    23305935.5814   23305941.0754
        42.2004         39.7004
 -20274250.77047 -15777690.67247  20117506.424    20117505.7954   20117511.0134
        50.8004         47.8004
 -16128625.46745 -12532436.63147  21749803.845    21749803.3784   21749806.4344
        46.0004         43.2004
  -6472648.87745  -5021350.73546  23164919.890    23164919.6184   23164921.4374
        43.7004         41.1004
 -12504945.93544  -9726421.84546  22450832.188    22450831.4254   22450833.6934
        43.0004         40.2004
  -9215972.35545  -7171386.45946  22080684.970    22080685.4074   22080691.0104
        44.9004         41.9004
 -16150847.20446 -11703180.92547  21188090.218    21188090.4114   21188092.2504
        47.7004         44.9004
  -2656590.58143  -2054823.46946  23980218.560    23980217.8254   23980222.8324
        40.1004         37.6004
   -789416.54344   -595390.97346  22891430.773    22891430.7134   22891432.3814
        42.2004         39.7004
 19 10 18  0  7  0.0000000  0  9G24G25G29G02G14G32G12G06G31
  -2406659.36144  -1836908.85146  23325480.416    23325481.9904   23325488.0094
        42.3004         39.7004
 -20287062.48647 -15787673.82847  20115067.969    20115067.9874   20115073.1284
        50.8004         47.8004
 -16216187.35445 -12600666.66047  21733141.694    21733141.4054   21733143.8964
        46.0004         43.3004
  -6492203.14845  -5036587.80346  23161198.690    23161198.3144   23161200.3144
        43.6004         40.7004
 -12522993.47444  -9740484.86046  22447397.105    22447396.8424   22447399.1834
        43.0004         40.2004
  -9171386.15845  -7136643.98547  22089169.838    22089170.3744   22089175.7614
        44.9004         42.1004
 -16083802.64246 -11650938.42147  21200848.699    21200848.7414   21200850.1544
        47.7004         44.9004
  -2617393.98043  -2024280.65846  23987675.932    23987675.5024   23987681.5564
        40.1004         37.4004
   -878541.27144   -664838.81746  22874470.178    22874470.8544   22874472.2534
        42.3004         39.7004
 19 10 18  0  7 30.0000000  0  9G24G25G29G02G14G32G12G06G31
  -2303754.11344  -1756722.93846  23345064.407    23345064.0644   23345070.2664
        42.3004         39.7004
 -20299477.91947 -15797348.18347  20112705.093    20112704.9364   20112710.3634
        50.7004         47.7004
 -16303369.19145 -12668600.54547  21716550.573    21716550.6274   21716553.3034
        46.2004         43.3004
  -6511261.07044  -5051438.11146  23157573.045    23157572.2434   23157572.5834
        43.4004         40.6004
 -12540469.40744  -9754102.47346  22444071.555    22444071.0854   22444073.9814
        43.0004         40.4004
  -9126262.96045  -7101483.06347  22097756.960    22097757.1944   22097762.0794
        45.1004         42.3004
 -16016494.73246 -11598490.70747  21213656.953    21213657.0634   21213658.6644
        47.7004         44.9004
  -2577644.46343  -1993307.00046  23995239.179    23995239.3744   23995245.9504
        39.9004         37.4004
   -967442.72744   -734112.65746  22857553.340    22857553.5884   22857555.0454
        42.5004         39.9004
 19 10 18  0  8  0.0000000  0  9G24G25G29G02G14G32G12G06G31
  -2200665.28344  -1676393.99546  23364681.682    23364681.7964   23364688.2534
        42.5004         40.0004
 -20311497.05747 -15806713.74747  20110418.233    20110417.7454   20110423.1244
        50.7004         47.7004
 -16390169.04445 -12736236.79647  21700032.875    21700032.9534   21700036.3934
        46.2004         43.3004
  -6529821.58645  -5065900.83946  23154040.191    23154040.1844   23154041.1514
        43.6004         40.7004
 -12557372.81244  -9767273.95846  22440855.159    22440854.8254   22440857.7694
        43.2004         40.4004
  -9080604.66845  -7065905.19447  22106445.195    22106445.3824   22106450.3904
        45.1004         42.5004
 -15948924.25146 -11545838.39747  21226515.854    21226515.6434   21226517.1884
        47.7004         44.9004
  -2537343.25343  -1961903.46646  24002909.134    24002909.1014   24002914.8444
        40.1004         37.6004
  -1056118.77144   -803210.87346  22840679.067    22840679.0594   22840680.5804
        42.5004         39.7004
 19 10 18  0  8 30.0000000  0  9G24G25G29G02G14G32G12G06G31
  -2097395.10444  -1595923.71246  23384332.898    23384333.6734   23384339.0144
        42.5004         39.9004
 -20323119.95047 -15815770.54347  20108206.394    20108206.2604   20108211.5634
        50.8004         47.8004
 -16476584.79545 -12803573.73147  21683589.659    21683588.6114   21683591.6654
        46.3004         43.5004
  -6547883.99445  -5079975.42046  23150603.450    23150602.8354   23150603.5014
        43.6004         40.6004
 -12573703.29844  -9779999.02546  22437747.521    22437746.9734   22437750.3454
        43.2004         40.2004
  -9034413.19445  -7029911.86547  22115235.105    22115235.9994   22115241.0594
        45.3004         42.6004
 -15881092.40446 -11492982.42047  21239423.226    21239423.4184   21239425.1314
        47.7004         44.9004
  -2496491.64743  -1930071.02246  24010684.344    24010683.7024   24010688.7534
        40.3004         37.8004
  -1144567.55844   -872131.99346  22823846.895    22823847.4474   22823849.2504
        42.3004         39.5004
 19 10 18  0  9  0.0000000  0  9G24G25G29G02G14G32G12G06G31
  -1993944.73544  -1515313.03546  23404019.075    23404019.6524   23404025.2334
        42.7004         40.0004
 -20334346.63147 -15824518.60747  20106070.514    20106069.7394   20106075.3054
        50.8004         47.8004
 -16562614.62146 -12870609.94847  21667218.272    21667218.5484   21667221.3474
        46.5004         43.7004
  -6565447.50345  -5093661.25246  23147261.074    23147260.6334   23147261.5814
        43.6004         40.7004
 -12589460.51844  -9792277.38146  22434749.476    22434748.7614   22434751.5774
        43.0004         40.2004
  -8987690.45945  -6993504.55347  22124127.056    22124127.2824   22124132.3964
        45.5004         42.6004
 -15813000.78146 -11439924.02047  21252381.572    21252381.0854   21252382.3954
        47.9004         45.1004
  -2455091.04444  -1897810.79346  24018562.226    24018562.4854   24018567.1184
        40.6004         38.1004
  -1232786.84644   -940874.27546  22807059.652    22807060.2614   22807061.2884
        42.2004         39.3004
 19 10 18  0  9 30.0000000  0  9G24G25G29G02G14G32G12G06G31
  -1890315.74744  -1434563.17746  23423739.404    23423738.8904   23423745.1194
        42.7004         40.0004
 -20345177.10747 -15832957.93947  20104009.482    20104009.0834   20104014.0024
        50.8004         47.8004
 -16648256.52846 -12937343.89247  21650921.402    21650921.4674   21650924.4134
        46.7004         43.9004
  -6582511.18345  -5106957.59546  23144014.402    23144013.8904   23144015.7094
        43.6004         40.9004
 -12604643.92944  -9804108.62246  22431859.456    22431858.9994   22431861.5944
        43.0004         40.2004
  -8940438.41545  -6956684.78747  22133118.832    22133119.0434   22133123.9684
        45.5004         42.5004
 -15744650.34146 -11386663.96547  21265387.408    21265387.5024   21265389.1324
        47.7004         44.9004
  -2413142.76144  -1865123.81946  24026543.885    24026543.9174   24026549.1364
        40.6004         37.8004
  -1320774.71244  -1009436.23946  22790316.540    22790316.6964   22790317.6934
        42.0004         39.2004
 19 10 18  0 10  0.0000000  0  9G24G25G29G02G14G32G12G06G31
  -1786510.32144  -1353675.83846  23443491.551    23443492.1354   23443498.3654
        42.7004         39.9004
 -20355611.45647 -15841088.60647  20102023.733    20102023.4184   20102028.3054
        50.8004         47.8004
 -16733508.98346 -13003774.36247  21634698.615    21634698.6544   21634701.1164
        46.9004         44.0004
  -6599073.93545  -5119863.62446  23140862.455    23140861.4704   23140863.7074
        43.7004         41.1004
 -12619252.81944  -9815492.18846  22429079.767    22429079.3054   22429081.6344
        43.0004         40.2004
  -8892659.02145  -6919454.09947  22142211.255    22142211.6234   22142216.1664
        45.1004         42.1004
 -15676042.08946 -11333202.98847  21278443.260    21278443.4794   21278445.0364
        47.7004         44.9004
  -2370648.17343  -1832011.16346  24034629.499    24034629.4944   24034635.8584
        39.9004         37.1004
  -1408528.75244  -1077815.99646  22773617.016    22773617.2144   22773620.1334
        41.6004         38.8004
 19 10 18  0 10 30.0000000  0  9G24G25G29G02G14G32G12G06G31
  -1682529.45444  -1272651.78046  23463280.028    23463279.2784   23463285.2174
        42.5004         39.7004
 -20365649.65847 -15848910.57947  20100113.710    20100113.4074   20100118.7224
        50.8004         47.8004
 -16818369.46746 -13069899.40247  21618550.355    21618550.3174   21618552.7684
        46.9004         44.0004
  -6615135.08345  -5132378.79946  23137805.984    23137805.9234   23137807.2454
        43.7004         41.1004
 -12633286.74544  -9826427.72946  22426409.285    22426409.1264   22426411.4454
        43.0004         40.4004
  -8844354.29145  -6881814.07446  22151402.063    22151403.2364   22151407.0164
        44.8004         41.6004
 -15607177.56446 -11279542.33347  21291547.360    21291547.6084   21291549.7574
        47.7004         44.7004
  -2327608.68343  -1798473.88346  24042820.542    24042820.5544   24042826.0974
        39.9004         37.4004
  -1496047.13544  -1146012.12746  22756962.546    22756962.4334   22756964.0374
        41.3004         38.3004
 19 10 18  0 11  0.0000000  0  9G24G25G29G02G14G32G12G06G31
  -1578375.19544  -1191492.62546  23483097.826    23483098.6934   23483104.2874
        42.3004         39.7004
 -20375291.80647 -15856423.93748  20098278.745    20098278.4244   20098283.7614
        50.8004         48.0004
 -16902836.19146 -13135717.61347  21602476.225    21602476.7704   21602478.2144
        46.9004         43.9004
  -6630693.97445  -5144502.56846  23134846.954    23134844.8974   23134846.3354
        43.7004         40.9004
 -12646745.43244  -9836915.03146  22423848.104    22423847.2114   22423849.7074
        43.2004         40.2004
  -8795526.25145  -6843766.27546  22160694.150    22160694.5324   22160699.1644
        44.4004         41.4004
 -15538058.21546 -11225683.10947  21304700.466    21304700.8764   21304702.5974
        47.7004         44.9004
  -2284025.72143  -1764513.10846  24051113.936    24051114.4844   24051119.9134
        39.7004         37.1004
  -1583327.96844  -1214023.14446  22740353.240    22740354.0044   22740356.3314
        40.8004         37.9004
 19 10 18  0 11 30.0000000  0  9G24G25G29G02G14G32G12G06G31
  -1474049.34544  -1110199.75546  23502950.818    23502951.9124   23502956.1264
        42.2004         39.7004
 -20384537.91547 -15863628.70048  20096519.013    20096518.6124   20096524.3684
        50.8004         48.0004
 -16986907.67646 -13201227.85147  21586477.669    21586477.8144   21586480.5944
        46.9004         44.0004
  -6645749.55145  -5156234.16746  23131980.642    23131979.5434   23131980.8974
        43.6004         40.7004
 -12659628.67544  -9846953.93746  22421395.848    22421395.7524   22421399.4424
        43.0004         40.2004
  -8746176.86745  -6805312.23546  22170085.055    22170085.1024   22170090.2814
        44.2004         41.4004
 -15468684.80146 -11171625.93147  21317901.713    21317901.6364   21317903.8834
        47.7004         44.7004
  -2239900.72143  -1730129.99346  24059509.705    24059509.6934   24059515.6634
        39.6004         36.9004
  -1670368.93143  -1281847.25246  22723791.290    22723790.1944   22723792.7664
        40.3004         37.6004
 19 10 18  0 12  0.0000000  0  9G24G25G29G02G14G32G12G06G31
  -1369553.01144  -1028774.04946  23522836.673    23522836.8614   23522841.9614
        42.2004         39.5004
 -20393388.08147 -15870524.93148  20094834.869    20094834.5904   20094840.0064
        50.8004         48.0004
 -17070581.89546 -13266428.54147  21570554.984    21570555.7044   21570557.9404
        47.0004         44.2004
  -6660300.96844  -5167572.93146  23129209.610    23129210.8264   23129210.9134
        43.2004         40.4004
 -12671935.67444  -9856543.81146  22419054.545    22419054.2194   22419056.5904
        42.9004         40.2004
  -8696308.27045  -6766453.59546  22179574.076    22179574.5494   22179579.4444
        44.1004         41.2004
 -15399058.60946 -11117371.75847  21331150.561    21331150.9114   21331153.0174
        47.5004         44.5004
  -2195235.16743  -1695325.66746  24068011.711    24068010.4564   24068013.7664
        39.4004         36.9004
  -1757168.15643  -1349482.98646  22707273.417    22707272.2604   22707275.4974
        40.1004         37.6004
 19 10 18  0 12 30.0000000  0  9G24G25G29G02G14G32G12G06G31
  -1264888.17044   -947217.03446  23542752.961    23542753.3644   23542758.8104
        42.2004         39.3004
 -20401842.36247 -15877112.68248  20093226.050    20093225.9654   20093231.2974
        51.0004         48.0004
 -17153856.93046 -13331318.15647  21554709.371    21554709.0364   21554711.3424
        47.0004         44.4004
  -6674347.63644  -5178518.34546  23126537.635    23126536.1824   23126538.3834
        43.0004         40.2004
 -12683666.15244  -9865684.44646  22416822.358    22416822.0714   22416825.1284
        42.9004         40.2004
  -8645922.45345  -6727191.93846  22189163.294    22189162.9384   22189168.7454
        44.4004         41.8004
 -15329180.71146 -11062921.46047  21344448.655    21344448.1524   21344450.8724
        47.5004         44.4004
  -2150030.48343  -1660101.21546  24076613.119    24076612.9314   24076616.2404
        39.2004         36.7004
  -1843723.42343  -1416928.63546  22690800.622    22690802.6084   22690805.3954
        40.1004         37.6004
 19 10 18  0 13  0.0000000  0  9G24G25G29G02G14G32G12G06G31
  -1160056.29544   -865529.86146  23562702.670    23562702.7564   23562708.0114
        42.2004         39.5004
 -20409900.75947 -15883391.95448  20091692.688    20091692.5174   20091697.8334
        51.0004         48.0004
 -17236730.96546 -13395895.31747  21538937.993    21538937.7354   21538940.8994
        47.0004         44.2004
  -6687888.79744  -5189069.87746  23123961.524    23123959.7964   23123961.3984
        43.0004         40.2004
 -12694819.77944  -9874375.56846  22414699.679    22414699.6874   22414702.3134
        42.9004         40.0004
  -8595021.58045  -6687528.92946  22198849.122    22198849.0214   22198854.8074
        44.4004         41.4004
 -15259052.48046 -11008276.10847  21357793.234    21357793.2074   21357795.9764
        47.4004         44.4004
  -2104288.21443  -1624457.89946  24085317.043    24085316.0494   24085321.3444
        39.0004         36.6004
  -1930032.67843  -1484182.58946  22674377.023    22674377.4514   22674379.9494
        40.3004         37.9004
 19 10 18  0 13 30.0000000  0  9G24G25G29G02G14G32G12G06G31
  -1055058.88144   -783713.70346  23582684.211    23582683.2934   23582687.6324
        42.2004         39.7004
 -20417563.40647 -15889362.84848  20090234.740    20090234.3424   20090239.9404
        51.0004         48.0004
 -17319202.37346 -13460158.74247  21523244.536    21523244.6504   21523247.1034
        47.0004         44.2004
  -6700923.60244  -5199226.85246  23121480.157    23121479.7034   23121481.1644
        43.2004         40.6004
 -12705396.19644  -9882616.93746  22412687.873    22412687.2474   22412689.9094
        43.0004         40.4004
  -8543607.71145  -6647466.20846  22208632.189    22208633.2044   22208638.2064
        44.4004         41.6004
 -15188674.88546 -10953436.43447  21371185.287    21371185.7014   21371188.0144
        47.2004         44.2004
  -2058009.78443  -1588396.80346  24094122.101    24094122.8904   24094125.8014
        38.7004         36.0004
  -2016093.60544  -1551243.04846  22658001.376    22658001.0664   22658002.8854
        40.6004         38.3004
 19 10 18  0 14  0.0000000  0  9G24G25G29G02G14G32G12G06G31
   -949898.36044   -701770.44746  23602695.610    23602694.5334   23602700.2824
        42.3004         39.7004
 -20424830.34947 -15895025.39848  20088851.683    20088851.3584   20088857.2064
        51.0004         48.2004
 -17401269.08346 -13524106.81247  21507627.778    21507628.0064   21507630.2884
        47.0004         44.2004
  -6713451.57844  -5208988.88946  23119096.564    23119095.9724   23119097.3854
        43.4004         40.6004
 -12715395.25344  -9890408.41546  22410785.054    22410784.4764   22410787.1884
        43.4004         40.7004
  -8491682.95745  -6607005.37346  22218514.197    22218514.4984   22218518.9564
        44.6004         41.9004
 -15118049.25646 -10898403.48947  21384624.798    21384625.0294   21384627.4924
        47.2004         44.2004
  -2011196.84043  -1551919.15846  24103030.935    24103032.1514   24103035.7614
        38.5004         36.4004
  -2101904.21044  -1618108.46546  22641671.718    22641671.9504   22641674.5314
        40.9004         38.6004
 19 10 18  0 14 30.0000000  0  9G24G25G29G02G14G32G12G06G31
   -844576.10444   -619701.14246  23622735.208    23622736.2374   23622742.1644
        42.3004         39.7004
 -20431701.67147 -15900379.68248  20087544.678    20087544.1254   20087549.1514
        51.0004         48.0004
 -17482929.26946 -13587738.11847  21492088.309    21492087.8624   21492090.6854
        47.2004         44.2004
  -6725471.85445  -5218355.30246  23116809.589    23116808.8794   23116811.3794
        43.6004         40.9004
 -12724816.72845  -9897749.83046  22408992.089    22408991.3904   22408994.0384
        43.6004         40.7004
  -8439249.51245  -6566148.15746  22228491.630    22228491.5154   22228496.6874
        44.8004         41.9004
 -15047176.92746 -10843178.31147  21398111.823    21398112.0124   21398114.2474
        47.2004         44.2004
  -1963850.93543  -1515026.21846  24112039.748    24112039.9234   24112045.3684
        38.7004         36.4004
  -2187462.49544  -1684777.26946  22625390.534    22625390.4004   22625393.0074
        41.5004         39.2004
 19 10 18  0 15  0.0000000  0  9G24G25G29G02G14G32G12G06G31
   -739093.29744   -537506.76046  23642807.987    23642809.1654   23642814.2414
        42.5004         39.7004
 -20438177.44447 -15905425.73948  20086311.938    20086311.5494   20086316.9984
        51.0004         48.0004
 -17564181.14746 -13651051.25347  21476626.671    21476626.6784   21476629.1844
        47.2004         44.4004
  -6736983.91345  -5227325.73946  23114620.215    23114619.4584   23114620.2944
        43.7004         40.9004
 -12733660.34245  -9904640.96846  22407309.533    22407309.0574   22407310.6274
        43.7004         40.9004
  -8386309.48545  -6524896.20946  22238565.710    22238566.1644   22238571.6704
        44.8004         41.9004
 -14976058.91446 -10787761.70147  21411644.510    21411644.9694   21411647.3584
        47.0004         44.2004
  -1915973.52443  -1477719.17846  24121150.739    24121151.1424   24121157.0184
        38.5004         36.0004
  -2272766.62344  -1751248.04146  22609157.870    22609158.6804   22609159.9214
        41.8004         39.2004
 19 10 18  0 15 30.0000000  0  9G24G25G29G02G14G32G12G06G31
   -633452.34544   -455189.13946  23662914.542    23662912.3664   23662917.4814
        42.5004         39.7004
 -20444257.75447 -15910163.64948  20085155.348    20085154.8134   20085159.8524
        51.0004         48.2004
 -17645022.94346 -13714044.85147  21461242.955    21461243.0604   21461245.3254
        47.4004         44.4004
  -6747987.02145  -5235899.59346  23112525.758    23112525.0844   23112525.2114
        43.6004         40.7004
 -12741925.57145  -9911081.42546  22405736.583    22405736.2304   22405738.5114
        43.6004         40.6004
  -8332865.07645  -6483251.24046  22248735.601    22248735.8374   22248741.3034
        44.8004         41.9004
 -14904696.45546 -10732154.60947  21425224.988    21425225.2384   21425227.1444
        47.0004         44.0004
  -1867566.26743  -1439999.22746  24130363.800    24130363.6164   24130367.0404
        38.7004         36.2004
  -2357814.18244  -1817518.86246  22592973.648    22592974.4164   22592976.4474
        42.3004         40.0004
 19 10 18  0 16  0.0000000  0  9G24G25G29G02G14G32G12G06G31
   -527654.45444   -372749.22846  23683044.774    23683045.0814   23683050.7774
        42.5004         39.7004
 -20449942.72647 -15914593.49748  20084072.889    20084072.4734   20084078.0004
        51.0004         48.0004
 -17725453.02446 -13776717.62847  21445937.748    21445937.2544   21445940.1234
        47.4004         44.5004
  -6758480.44444  -5244076.25846  23110528.750    23110527.9384   23110528.7124
        43.4004         40.6004
 -12749612.35344  -9917071.14346  22404273.745    22404273.0994   22404275.5004
        43.2004         40.2004
  -8278918.49045  -6441214.96046  22259001.188    22259001.3214   22259007.1064
        44.6004         41.6004
 -14833090.41846 -10676357.69747  21438851.147    21438850.9104   21438852.8924
        47.0004         44.0004
  -1818630.85143  -1401867.70146  24139673.595    24139674.6504   24139679.3074
        38.5004         36.2004
  -2442602.86444  -1883587.98546  22576839.513    22576839.5654   22576841.2144
        42.9004         40.4004
 19 10 18  0 16 30.0000000  0  9G24G25G29G02G14G32G12G06G31
   -421701.42144   -290188.43046  23703206.405    23703207.4074   23703212.3564
        42.5004         39.9004
 -20455232.41447 -15918715.33748  20083066.499    20083066.2224   20083071.4174
        51.0004         48.0004
 -17805469.62546 -13839068.21347  21430710.924    21430711.0254   21430713.3544
        47.4004         44.5004
  -6768463.74244  -5251855.44846  23108628.146    23108627.7504   23108628.4264
        43.4004         40.4004
 -12756720.63544  -9922610.08246  22402920.937    22402920.7974   22402922.9684
        42.9004         40.0004
  -8224471.92745  -6398789.09346  22269362.451    22269363.0304   22269367.5744
        44.4004         41.4004
 -14761242.56046 -10620372.38747  21452522.846    21452523.6394   21452525.2304
        47.0004         44.0004
  -1769168.81143  -1363325.86646  24149087.069    24149087.2854   24149092.2034
        38.7004         36.4004
  -2527130.86444  -1949453.95846  22560755.188    22560754.2164   22560756.4074
        43.2004         40.7004
 19 10 18  0 17  0.0000000  0  9G24G25G29G02G14G32G12G06G31
   -315594.62244   -207507.80546  23723400.532    23723399.2734   23723403.4404
        42.5004         39.5004
 -20460126.92247 -15922529.24048  20082135.369    20082134.6764   20082140.4514
        51.0004         48.0004
 -17885070.77146 -13901095.06647  21415563.337    21415563.8174   21415565.3684
        47.4004         44.5004
  -6777936.23144  -5259236.58346  23106824.814    23106824.2544   23106826.4664
        43.2004         40.2004
 -12763249.89244  -9927697.83946  22401678.017    22401678.5034   22401679.6934
        42.5004         39.7004
  -8169527.64945  -6355975.38746  22279818.078    22279818.1244   22279823.6424
        44.4004         41.4004
 -14689153.34746 -10564198.96847  21466242.188    21466241.7724   21466243.5324
        47.0004         44.2004
  -1719181.83543  -1324374.98446  24158599.867    24158600.0934   24158604.6794
        39.0004         36.9004
  -2611396.26745  -2015115.31246  22544719.929    22544719.3944   22544721.1084
        43.6004         40.9004
 19 10 18  0 17 30.0000000  0  9G24G25G29G02G14G32G12G06G31
   -209336.04544   -124708.92246  23743620.996    23743620.1894   23743624.1074
        42.5004         39.9004
 -20464626.35047 -15926035.28647  20081278.015    20081278.0374   20081283.6684
        50.8004         47.8004
 -17964254.90846 -13962796.97447  21400494.468    21400494.6974   21400497.3424
        47.4004         44.4004
  -6786897.32344  -5266219.23146  23105119.777    23105119.2144   23105121.3814
        43.2004         40.6004
 -12769200.25344  -9932334.48346  22400546.052    22400545.6214   22400547.8714
        42.5004         39.9004
  -8114087.82345  -6312775.55046  22290367.132    22290367.8974   22290372.4164
        44.1004         41.1004
 -14616824.39746 -10507838.77147  21480004.693    21480004.8994   21480007.8674
        47.0004         44.0004
  -1668671.59443  -1285016.34546  24168213.389    24168212.3054   24168215.8394
        38.7004         36.2004
  -2695396.67745  -2080570.17846  22528733.870    22528734.5594   22528736.9254
        43.7004         40.9004
 19 10 18  0 18  0.0000000  0  9G24G25G29G02G14G32G12G06G31
   -102927.64644    -41793.28246  23763867.619    23763867.8684   23763872.0734
        42.3004         39.7004
 -20468730.86147 -15929233.61047  20080497.755    20080497.1584   20080502.7064
        50.8004         47.8004
 -18043020.09246 -14024172.42847  21385506.661    21385506.4654   21385508.5504
        47.4004         44.4004
  -6795346.62144  -5272803.09146  23103513.170    23103512.1424   23103513.1194
        43.4004         40.7004
 -12774571.65844  -9936520.00246  22399523.709    22399523.1524   22399526.0584
        42.5004         39.9004
  -8058154.80245  -6269191.37946  22301010.510    22301011.7654   22301016.1974
        44.1004         41.2004
 -14544256.56046 -10451292.41547  21493815.184    21493814.6844   21493817.0824
        47.0004         44.0004
  -1617639.72943  -1245251.26346  24177923.614    24177923.1334   24177926.1124
        38.5004         36.2004
  -2779129.94245  -2145816.88446  22512800.873    22512801.3264   22512803.2024
        43.9004         41.4004
 19 10 18  0 18 30.0000000  0  9G24G25G29G02G14G32G12G06G31
      3629.44344     41238.20846  23784146.386    23784146.0984   23784150.4254
        42.3004         39.7004
 -20472440.49847 -15932124.23247  20079791.556    20079791.1874   20079796.7854
        50.8004         47.8004
 -18121364.78746 -14085220.22347  21370598.192    21370597.8184   21370600.2804
        47.4004         44.4004
  -6803283.41745  -5278987.59146  23102002.934    23102002.0824   23102003.2744
        43.6004         40.7004
 -12779364.11744  -9940254.39146  22398611.179    22398610.0964   22398614.0694
        42.7004         39.9004
  -8001730.84445  -6225224.67846  22311748.187    22311749.8184   22311753.8124
        44.2004         41.6004
 -14471451.07046 -10394560.87747  21507670.022    21507669.3374   21507670.9314
        47.0004         44.2004
  -1566087.98843  -1205081.09545  24187730.104    24187731.7794   24187738.2414
        38.3004         35.9004
  -2862594.01645  -2210853.82346  22496918.541    22496918.5504   22496919.8954
        44.2004         41.8004
 19 10 18  0 19  0.0000000  0  9G24G25G29G02G14G32G12G06G31
    110333.24544    124384.02646  23804450.541    23804450.0874   23804454.1454
        42.2004         39.5004
 -20475755.39347 -15934707.27247  20079161.123    20079160.8024   20079165.7334
        50.8004         47.8004
 -18199287.48746 -14145939.20747  21355769.711    21355769.9464   21355772.1074
        47.4004         44.5004
  -6810707.45945  -5284772.55646  23100589.642    23100589.5954   23100589.0354
        43.6004         40.7004
 -12783577.33844  -9943537.42246  22397810.988    22397810.3944   22397812.0174
        43.0004         40.4004
  -7944818.22945  -6180877.20846  22322578.322    22322578.7794   22322583.8664
        44.2004         41.2004
 -14398409.66446 -10337645.51347  21521568.799    21521569.1554   21521571.0094
        46.9004         44.2004
  -1514018.10243  -1164507.14246  24197641.148    24197641.0834   24197643.5844
        38.3004         36.0004
  -2945786.95045  -2275679.46846  22481086.831    22481086.5194   22481089.0254
        44.6004         41.6004
 19 10 18  0 19 30.0000000  0  9G24G25G29G02G14G32G12G06G31
    217181.95644    207642.74846  23824782.430    23824782.9594   23824786.8314
        42.2004         39.5004
 -20478675.66247 -15936982.80647  20078605.387    20078604.7974   20078610.3094
        50.8004         47.8004
 -18276786.15946 -14206327.76447  21341022.498    21341022.6234   21341024.5574
        47.4004         44.5004
  -6817618.14045  -5290157.47446  23099273.788    23099273.7874   23099274.2974
        43.6004         40.9004
 -12787211.39444  -9946369.15346  22397118.375    22397117.9124   22397120.3094
        43.0004         40.4004
  -7887419.31345  -6136150.79746  22333501.835    22333502.1194   22333507.6634
        44.2004         41.6004
 -14325132.63946 -10280546.54247  21535511.822    21535512.2544   21535514.3464
        46.9004         43.7004
  -1461431.84543  -1123530.82546  24207646.875    24207647.4804   24207651.9434
        38.3004         36.0004
  -3028706.46345  -2340292.07147  22465307.479    22465308.2524   22465310.2324
        44.8004         42.1004
 19 10 18  0 20  0.0000000  0  9G24G25G29G02G14G32G12G06G31
    324173.98244    291013.15746  23845142.768    23845142.5344   23845147.5374
        42.2004         39.5004
 -20481201.44247 -15938950.94747  20078124.741    20078124.3764   20078129.5704
        50.8004         47.8004
 -18353859.18346 -14266384.65047  21326355.870    21326355.4174   21326358.4304
        47.5004         44.7004
  -6824015.06844  -5295142.07446  23098056.641    23098056.6184   23098057.1954
        43.4004         40.7004
 -12790266.39344  -9948749.67846  22396536.805    22396536.4374   22396538.8784
        43.0004         40.2004
  -7829536.37645  -6091047.23446  22344516.378    22344516.7734   22344521.1764
        44.4004         41.8004
 -14251621.98246 -10223265.53647  21549501.017    21549501.5274   21549503.2114
        46.7004         43.9004
  -1408330.94343  -1082153.48246  24217752.814    24217752.8724   24217757.0774
        38.5004         36.0004
  -3111350.46445  -2404689.99346  22449581.368    22449581.1234   22449582.6404
        44.8004         41.8004
 19 10 18  0 20 30.0000000  0  9G24G25G29G02G14G32G12G06G31
    431307.57744    374493.87446  23865531.233    23865530.4214   23865534.5884
        42.2004         39.5004
 -20483332.87347 -15940611.81048  20077719.543    20077719.1074   20077724.2644
        50.8004         48.0004
 -18430505.08046 -14326108.71847  21311770.244    21311770.6974   21311773.1594
        47.5004         44.9004
  -6829897.65845  -5299725.89546  23096937.595    23096936.3984   23096938.9394
        43.6004         40.7004
 -12792742.07344  -9950678.78746  22396065.293    22396065.1784   22396067.4944
        42.7004         39.7004
  -7771171.79245  -6045568.35546  22355623.013    22355623.3084   22355628.1654
        44.4004         41.6004
 -14177878.15846 -10165802.83547  21563534.428    21563534.0384   21563536.3854
        46.7004         43.9004
  -1354717.14043  -1040376.46345  24227953.390    24227953.9144   24227959.0324
        38.2004         35.9004
  -3193716.88745  -2468871.61946  22433907.142    22433907.3784   22433909.9594
        44.8004         41.9004
 19 10 18  0 21  0.0000000  0  9G24G25G29G02G14G32G12G06G31
    538581.06444    458083.59446  23885943.575    23885943.3424   23885947.8794
        42.0004         39.3004
 -20485070.05647 -15941965.46447  20077388.243    20077388.0074   20077393.3264
        50.8004         47.8004
 -18506722.33446 -14385498.77547  21297267.086    21297266.9964   21297269.2884
        47.7004         44.9004
  -6835265.52045  -5303908.62046  23095915.555    23095915.4784   23095917.0744
        43.6004         40.7004
 -12794638.66444  -9952156.66346  22395704.024    22395703.7074   22395706.8824
        42.3004         39.0004
  -7712327.94245  -5999716.01946  22366820.936    22366820.9084   22366825.1634
        44.4004         41.6004
 -14103902.65046 -10108159.60347  21577611.354    21577611.6134   21577612.9614
        46.7004         43.7004
  -1300592.28143   -998201.27145  24238252.947    24238254.3344   24238259.4534
        37.8004         35.7004
  -3275803.48045  -2532835.20146  22418286.669    22418286.1684   22418288.9324
        44.6004         41.9004
 19 10 18  0 21 30.0000000  0  9G24G25G29G02G14G32G12G06G31
    645992.43844    541780.78146  23906381.395    23906382.3454   23906387.9244
        42.0004         39.2004
 -20486413.16047 -15943012.03848  20077133.373    20077132.8114   20077138.0364
        50.8004         48.0004
 -18582509.02546 -14444553.32947  21282845.557    21282845.4134   21282847.5434
        47.7004         44.9004
  -6840118.34544  -5307690.02846  23094993.076    23094992.0184   23094993.6094
        43.4004         40.7004
 -12795956.22444  -9953183.33346  22395453.870    22395452.9504   22395456.3744
        41.8004         38.8004
  -7653007.18245  -5953492.07746  22378109.094    22378109.4224   22378113.7204
        44.2004         41.4004
 -14029696.15646 -10050336.38647  21591732.364    21591732.6384   21591734.3834
        46.5004         43.7004
  -1245958.14543   -955629.16445  24248650.743    24248651.3174   24248655.3414
        38.0004         35.9004
  -3357608.10245  -2596579.04246  22402720.178    22402719.8684   22402721.2274
        44.6004         41.8004
 19 10 18  0 22  0.0000000  0  9G24G25G29G02G14G32G12G06G31
    753540.70444    625584.60546  23926848.675    23926847.8114   23926853.8144
        42.0004         39.3004
 -20487362.32147 -15943751.64747  20076952.064    20076951.6494   20076957.1454
        50.8004         47.8004
 -18657863.50746 -14503271.09147  21268505.164    21268505.4104   21268507.9924
        47.7004         44.9004
  -6844455.90344  -5311069.92146  23094166.221    23094166.1464   23094168.6874
        43.4004         40.7004
 -12796694.87344  -9953758.91646  22395313.375    22395313.0864   22395315.7324
        41.6004         39.0004
  -7593211.96545  -5906898.40346  22389487.587    22389487.6954   22389492.0794
        44.1004         41.1004
 -13955260.43546  -9992334.54847  21605897.356    21605897.1164   21605898.9594
        46.5004         43.7004
  -1190816.48843   -912661.62745  24259144.514    24259143.7184   24259149.6984
        38.0004         35.9004
  -3439128.77445  -2660101.65047  22387207.114    22387206.9944   22387209.2344
        44.8004         42.1004
 19 10 18  0 22 30.0000000  0  9G24G25G29G02G14G32G12G06G31
    861223.94744    709493.60046  23947340.945    23947338.9524   23947345.5374
        41.8004         39.2004
 -20487917.68447 -15944184.40348  20076847.052    20076846.4034   20076851.8034
        50.8004         48.0004
 -18732784.21546 -14561650.84647  21254248.346    21254248.4344   21254251.2804
        47.7004         44.9004
  -6848277.47945  -5314047.74346  23093440.688    23093439.3914   23093441.0144
        43.6004         40.7004
 -12796854.47344  -9953883.28846  22395283.118    22395283.2504   22395285.6264
        42.0004         39.7004
  -7532944.64645  -5859936.85346  22400956.331    22400957.0464   22400960.1454
        44.1004         41.2004
 -13880596.30945  -9934154.73247  21620104.471    21620104.8224   21620106.7244
        46.3004         43.5004
  -1135169.29243   -869300.18645  24269733.469    24269733.9844   24269738.2044
        38.0004         35.9004
  -3520363.34245  -2723401.31047  22371748.599    22371748.6164   22371751.2944
        44.9004         42.1004
 19 10 18  0 23  0.0000000  0  9G24G25G29G02G14G32G12G06G31
    969039.92144    793506.03546  23967858.020    23967856.8234   23967861.8364
        41.8004         39.2004
 -20488079.35847 -15944310.37947  20076815.474    20076815.2374   20076821.0144
        50.8004         47.8004
 -18807269.61446 -14619691.39747  21240074.866    21240074.7114   21240077.3084
        47.9004         45.1004
  -6851582.82045  -5316623.32346  23092811.995    23092811.3624   23092812.4474
        43.6004         40.9004
 -12796435.24944  -9953556.62446  22395364.032    22395363.3574   22395365.3374
        42.7004         40.4004
  -7472207.64045  -5812609.34246  22412514.044    22412514.2214   22412518.7264
        44.2004         41.4004
 -13805704.81945  -9875797.74947  21634355.969    21634356.6354   21634358.2014
        46.3004         43.3004
  -1079018.34443   -825546.18146  24280421.522    24280419.3634   24280423.9694
        38.3004         36.2004
  -3601309.65645  -2786476.37147  22356344.636    22356345.4514   22356346.8954
        45.1004         42.5004
 19 10 18  0 23 30.0000000  0  9G24G25G29G02G14G32G12G06G31
   1076986.92844    877620.57846  23988397.285    23988398.1084   23988403.9124
        42.0004         39.3004
 -20487847.55147 -15944129.75247  20076859.807    20076859.4064   20076865.1264
        50.8004         47.8004
 -18881317.94846 -14677391.38447  21225983.801    21225983.3914   21225986.0954
        47.9004         45.1004
  -6854371.56345  -5318796.35646  23092280.271    23092280.4474   23092280.9374
        43.6004         40.7004
 -12795437.50844  -9952779.18046  22395553.690    22395553.0714   22395555.5914
        43.2004         40.7004
  -7411003.44745  -5764917.78846  22424160.362    22424160.3334   22424165.9604
        44.1004         41.2004
 -13730587.41745  -9817264.73347  21648650.756    21648650.9974   21648652.6964
        46.3004         43.5004
  -1022365.51843   -781401.14745  24291200.785    24291199.8554   24291203.3134
        38.2004         35.9004
  -3681965.67145  -2849325.20247  22340996.899    22340997.0114   22340998.6824
        45.3004         42.6004
 19 10 18  0 24  0.0000000  0  9G24G25G29G02G14G32G12G06G31
   1185063.61244    961836.18046  24008962.405    24008963.9934   24008969.5634
        42.0004         39.3004
 -20487222.41147 -15943642.63047  20076978.437    20076978.1674   20076984.0294
        50.8004         47.8004
 -18954927.89946 -14734749.77247  21211975.560    21211976.0394   21211978.6474
        47.9004         44.9004
  -6856643.56245  -5320566.72846  23091848.467    23091847.4124   23091848.2284
        43.6004         40.6004
 -12793861.17544  -9951550.89046  22395853.329    22395853.0464   22395855.9114
        43.4004         40.6004
  -7349334.49845  -5716864.06046  22435895.955    22435896.1284   22435901.6074
        44.2004         41.6004
 -13655244.78445  -9758556.20547  21662987.928    21662987.9544   21662989.8124
        46.2004         43.3004
   -965212.77943   -736866.56346  24302075.226    24302076.0174   24302078.7784
        38.3004         36.0004
  -3762329.10945  -2911946.04947  22325704.143    22325704.8034   22325705.9194
        45.5004         42.6004
 19 10 18  0 24 30.0000000  0  9G24G25G29G02G14G32G12G06G31
   1293268.48644   1046151.66946  24029555.660    24029555.5234   24029561.1854
        42.0004         39.3004
 -20486204.07147 -15942849.12447  20077172.844    20077172.3424   20077177.7884
        50.8004         47.8004
 -19028097.72446 -14791765.21747  21198051.734    21198052.0794   21198055.3824
        47.7004         44.9004
  -6858398.67845  -5321934.33746  23091514.816    23091513.9544   23091515.0634
        43.6004         40.7004
 -12791706.54344  -9949871.97346  22396263.113    22396262.7964   22396266.0064
        43.2004         40.2004
  -7287203.23345  -5668450.11846  22447719.018    22447719.5964   22447723.5384
        44.2004         41.2004
 -13579678.32445  -9699673.26947  21677367.547    21677367.3324   21677369.3814
        46.0004         43.0004
   -907561.98943   -691943.84845  24313047.428    24313047.4064   24313050.1654
        38.2004         35.9004
  -3842397.92645  -2974337.33847  22310467.279    22310467.7714   22310469.2374
        45.5004         42.6004
 19 10 18  0 25  0.0000000  0  9G24G25G29G02G14G32G12G06G31
   1401599.67944   1130565.56546  24050172.557    24050171.4044   24050176.6634
        42.2004         39.3004
 -20484792.72647 -15941749.37847  20077440.827    20077440.7944   20077446.2864
        50.8004         47.8004
 -19100825.98346 -14848436.58547  21184212.397    21184212.4544   21184215.3714
        47.7004         44.9004
  -6859636.33745  -5322898.73846  23091277.673    23091278.0314   23091279.6314
        43.6004         40.7004
 -12788974.01644  -9947742.74446  22396783.565    22396782.7944   22396785.3294
        42.7004         39.7004
  -7224612.21645  -5619677.93346  22459629.407    22459630.1594   22459633.7634
        43.7004         40.7004
 -13503888.92945  -9640616.61547  21691790.227    21691790.2474   21691792.0534
        46.0004         43.2004
   -849415.01743   -646634.52846  24324111.828    24324112.4314   24324115.9454
        38.5004         36.4004
  -3922169.75945  -3036497.20747  22295287.931    22295287.1474   22295288.9564
        45.5004         42.5004
 19 10 18  0 25 30.0000000  0  9G24G25G29G02G14G32G12G06G31
   1510055.14344   1215076.33846  24070809.120    24070809.2204   24070814.7374
        42.0004         39.2004
 -20482988.53047 -15940343.51747  20077784.849    20077784.4324   20077789.4014
        50.8004         47.8004
 -19173110.92346 -14904762.50847  21170457.417    21170457.4494   21170459.2904
        47.9004         45.1004
  -6860356.50445  -5323459.89346  23091141.373    23091140.7204   23091141.3544
        43.6004         40.6004
 -12785663.71844  -9945163.28546  22397413.465    22397412.4824   22397414.8074
        42.3004         39.5004
  -7161563.92245  -5570549.39846  22471627.590    22471628.0094   22471633.7984
        43.9004         41.2004
 -13427877.79745  -9581387.18347  21706253.999    21706254.1774   21706256.0784
        45.8004         43.0004
   -790773.91043   -600940.16246  24335271.364    24335270.7514   24335275.6514
        38.9004         36.4004
  -4001642.66445  -3098424.15247  22280164.327    22280164.7214   22280166.1454
        45.3004         42.6004
 19 10 18  0 26  0.0000000  0  9G24G25G29G02G14G32G12G06G31
   1618633.68044   1299682.97846  24091470.313    24091471.0664   24091475.3034
        41.6004         38.6004
 -20480791.67847 -15938631.68547  20078202.925    20078202.5944   20078207.6454
        50.8004         47.8004
 -19244951.26246 -14960741.98547  21156786.514    21156786.3074   21156788.8874
        47.9004         45.1004
  -6860558.93144  -5323617.60646  23091102.547    23091102.2334   23091103.0714
        43.4004         40.6004
 -12781775.76644  -9942133.71146  22398153.207    22398152.6004   22398154.7524
        42.3004         39.7004
  -7098060.82445  -5521066.48146  22483711.987    22483711.9874   22483716.9034
        44.1004         41.2004
 -13351646.22245  -9521985.96447  21720760.728    21720760.9454   21720763.0664
        45.8004         43.0004
   -731640.57143   -554862.22746  24346523.106    24346523.6824   24346527.0074
        38.5004         36.4004
  -4080814.55945  -3160116.53447  22265098.224    22265098.4274   22265100.2554
        45.3004         42.5004
 19 10 18  0 26 30.0000000  0  9G24G25G29G02G14G32G12G06G31
   1727333.18944   1384383.91146  24112154.084    24112155.2714   24112161.1224
        41.3004         38.5004
 -20478202.31447 -15936613.99847  20078695.214    20078694.8584   20078700.0744
        50.8004         47.8004
 -19316345.35146 -15016373.73447  21143200.096    21143200.1524   21143203.2204
        47.9004         45.1004
  -6860243.47644  -5323371.77146  23091162.516    23091162.0164   23091163.4804
        43.4004         40.6004
 -12777310.67544  -9938654.42446  22399002.856    22399002.1684   22399004.5964
        42.3004         39.7004
  -7034105.51745  -5471231.19746  22495881.250    22495881.4704   22495887.6214
        43.9004         40.9004
 -13275195.45245  -9462413.95347  21735308.905    21735308.9344   21735310.0034
        45.8004         42.6004
   -672016.99143   -508402.28846  24357870.513    24357869.9054   24357873.1204
        38.7004         36.4004
  -4159683.30045  -3221572.68847  22250090.555    22250090.1794   22250091.8654
        45.3004         42.5004
 19 10 18  0 27  0.0000000  0  9G24G25G29G02G14G32G12G06G31
   1836151.52244   1469177.41446  24132862.242    24132862.3474   24132866.7684
        40.9004         38.1004
 -20475220.64147 -15934290.62247  20079263.058    20079262.7414   20079267.6904
        50.8004         47.8004
 -19387291.66146 -15071656.56547  21129699.975    21129699.7704   21129702.3474
        47.9004         45.1004
  -6859409.64844  -5322722.02646  23091320.974    23091320.7224   23091322.9284
        43.4004         40.7004
 -12772268.55144  -9934725.51246  22399962.075    22399961.8754   22399964.6724
        42.7004         40.0004
  -6969700.49645  -5421045.49946  22508137.847    22508138.9134   22508143.2314
        43.9004         41.1004
 -13198526.07245  -9402671.60647  21749899.531    21749899.2764   21749900.6404
        45.8004         43.0004
   -611905.20043   -461561.94146  24369307.433    24369307.1764   24369311.7804
        38.5004         36.2004
  -4238246.88545  -3282791.07347  22235140.000    22235140.1054   22235141.3784
        45.3004         42.5004
