     2.11           OBSERVATION DATA    G (GPS)             RINEX VERSION / TYPE
teqc  2019Feb25     IGN-RGP             20191104 08:50:17UTCPGM / RUN BY / DATE
Linux 2.6.32-573.12.1.x86_64|x86_64|gcc|Linux 64|=+         COMMENT
teqc  2019Feb25     IGN-RGP             20191023 08:50:06UTCCOMMENT
teqc  2019Feb25     Administrateur RGP  20191023 08:50:06UTCCOMMENT
teqc  2019Feb25     Observatoire de Pari20191020 00:52:28UTCCOMMENT
Linux 2.6.32-573.12.1.x86_64|x86_64|gcc -static|Linux 64|=+ COMMENT
BIT 2 OF LLI FLAGS DATA COLLECTED UNDER A/S CONDITION       COMMENT
OPMT                                                        MARKER NAME
10001S006                                                   MARKER NUMBER
Automatic           OP                                      OBSERVER / AGENCY
02942               ASHTECH Z-XII3T     1L01-1D04           REC # / TYPE / VERS
00019               3S-02-TSADM     NONE                    ANT # / TYPE
  4202777.6220   171367.7610  4778659.9840                  APPROX POSITION XYZ
        0.0000        0.0000        0.0000                  ANTENNA: DELTA H/E/N
     1     1                                                WAVELENGTH FACT L1/2
     7    L1    L2    C1    P1    P2    S1    S2            # / TYPES OF OBSERV
    30.0000                                                 INTERVAL
 SNR is mapped to RINEX snr flag value [0-9]                COMMENT
  L1 & L2: min(max(int(snr_dBHz/6), 0), 9)                  COMMENT
pseudorange smoothing corrections not applied               COMMENT
Forced Modulo Decimation to 30 seconds                      COMMENT
teqc_2019 edited: GLONASS # 25 - 30 excluded                COMMENT
teqc_2019 edited: GLONASS # 25 - 30 excluded                COMMENT
  2019    10    19     0     0    0.0000000     GPS         TIME OF FIRST OBS
                                                            END OF HEADER
 19 10 19  0  0  0.0000000  0  8G25G24G29G14G12G02G06G32
 -20097865.33547 -15637765.58547  20130156.803    20130156.5084   20130161.7634
        50.8004         47.8004
  -3346878.09244  -2581535.36446  23212358.113    23212359.7054   23212367.2154
        42.3004         39.3004
 -16711273.71445 -12998884.27947  21831831.687    21831832.0754   21831834.5384
        45.6004         42.8004
  -9344761.12944  -7267768.37146  22470410.420    22470409.9744   22470411.9794
        43.0004         40.4004
 -16479590.83946 -12818354.03147  21130526.724    21130526.8004   21130529.0124
        47.7004         44.9004
  -6555539.83945  -5091357.65946  23185124.055    23185123.0284   23185123.4584
        43.6004         40.6004
  -7578066.44143  -5885767.00246  23945902.232    23945901.3824   23945908.4214
        39.4004         36.9004
  -8972710.24645  -6970006.37247  22041091.708    22041092.4704   22041096.5054
        45.5004         42.5004
 19 10 19  0  0 30.0000000  0  8G25G24G29G14G12G02G06G32
 -20112560.10747 -15649216.05847  20127360.626    20127360.1404   20127365.4634
        50.8004         47.8004
  -3245069.20144  -2502203.77946  23231733.444    23231734.1914   23231739.2934
        42.2004         39.5004
 -16800645.84145 -13068524.88447  21814824.870    21814825.6034   21814827.0754
        45.8004         43.2004
  -9365621.40144  -7284023.14546  22466440.563    22466440.0394   22466442.8864
        43.0004         40.4004
 -16413761.78146 -12767058.67147  21143052.546    21143053.1574   21143055.6684
        47.7004         44.9004
  -6577383.00544  -5108378.28146  23180966.509    23180965.6244   23180967.7654
        43.4004         40.7004
  -7541562.14843  -5857322.13046  23952847.925    23952848.1174   23952854.4594
        39.6004         37.1004
  -8930701.66845  -6937272.42747  22049085.529    22049086.4774   22049090.9984
        45.3004         42.5004
 19 10 19  0  1  0.0000000  0  9G25G24G29G14G12G02G06G32G31
 -20126858.54547 -15660357.70248  20124639.833    20124639.3064   20124644.5534
        50.8004         48.0004
  -3143067.75244  -2422722.16646  23251144.995    23251143.8044   23251149.6574
        42.0004         39.3004
 -16889647.38545 -13137876.73247  21797888.659    21797888.3524   21797891.4004
        46.0004         43.0004
  -9385913.04144  -7299834.79946  22462579.910    22462579.3794   22462581.2414
        43.2004         40.6004
 -16347663.82646 -12715553.78447  21155630.625    21155631.3064   21155633.6034
        47.7004         44.9004
  -6598734.67544  -5125015.92146  23176904.190    23176903.3594   23176904.1424
        43.4004         40.7004
  -7504498.96243  -5828441.70046  23959901.284    23959902.8554   23959906.8824
        39.4004         37.1004
  -8888147.40145  -6904113.26947  22057184.256    22057184.0874   22057189.2404
        45.5004         42.6004
                   -202074.71356  22941139.120                    22941140.4124
                        38.8004
 19 10 19  0  1 30.0000000  0  9G25G24G29G14G12G02G06G32G31
 -20140760.67147 -15671190.53247  20121993.927    20121993.6304   20121999.1184
        50.8004         47.8004
  -3040875.22044  -2343091.62246  23270590.535    23270590.1024   23270597.1204
        42.0004         39.3004
 -16978276.58745 -13206938.45047  21781023.939    21781023.5334   21781026.1624
        46.0004         43.2004
  -9405635.33944  -7315202.82146  22458826.040    22458826.4604   22458828.3934
        43.2004         40.2004
 -16281298.00746 -12663840.17847  21168260.377    21168260.6994   21168262.5344
        47.7004         44.9004
  -6619593.36545  -5141269.43546  23172934.113    23172934.0814   23172934.7804
        43.6004         40.9004
  -7466878.06843  -5799126.70246  23967061.755    23967061.0724   23967065.8614
        39.7004         37.4004
  -8845049.20545  -6870530.28647  22065385.531    22065385.3044   22065390.0094
        45.3004         42.3004
   -363274.85244   -272023.39346  22924057.928    22924057.0944   22924057.8474
        41.3004         39.0004
 19 10 19  0  2  0.0000000  0  9G25G24G29G14G12G02G06G32G31
 -20154266.51347 -15681714.56647  20119423.985    20119423.6134   20119428.8604
        50.8004         47.7004
  -2938493.08344  -2263313.36046  23290072.485    23290072.7764   23290079.3344
        42.2004         39.3004
 -17066531.04645 -13275708.14647  21764229.014    21764228.7954   21764231.2494
        46.0004         43.2004
  -9424787.81644  -7330126.85146  22455181.635    22455181.1874   22455183.5174
        43.0004         40.0004
 -16214665.16446 -12611918.49047  21180940.162    21180940.5084   21180942.6884
        47.7004         44.9004
  -6639958.60045  -5157138.41746  23169059.895    23169058.8484   23169060.4674
        43.7004         41.1004
  -7428700.60343  -5769378.04646  23974325.275    23974326.9684   23974330.7674
        39.9004         37.4004
  -8801408.92445  -6836524.91047  22073689.042    22073689.4484   22073694.5544
        45.1004         42.1004
   -452824.82044   -341802.57646  22907016.229    22907016.0054   22907018.1454
        41.8004         39.5004
 19 10 19  0  2 30.0000000  0  9G25G24G29G14G12G02G06G32G31
 -20167376.02047 -15691929.77548  20116929.737    20116929.4304   20116934.4444
        50.8004         48.0004
  -2835923.03544  -2183388.64746  23309591.387    23309591.3694   23309598.3784
        42.2004         39.5004
 -17154408.90745 -13344184.39447  21747506.097    21747506.0724   21747508.7274
        46.0004         43.2004
  -9443369.78044  -7344606.29346  22451645.660    22451645.4224   22451648.2354
        43.0004         40.4004
 -16147766.94046 -12559790.02047  21193670.307    21193670.9334   21193672.4404
        47.7004         44.9004
  -6659829.08045  -5172621.88946  23165276.715    23165277.3504   23165279.1954
        43.7004         40.9004
  -7389967.87843  -5739196.69246  23981698.053    23981697.0834   23981702.9594
        40.1004         37.6004
  -8757228.39745  -6802098.55947  22082095.752    22082096.3114   22082102.5464
        44.9004         42.1004
   -542155.37754   -411410.77556  22890017.476    22890017.5454   22890018.7694
        42.2004         39.7004
 19 10 19  0  3  0.0000000  0  9G25G24G29G14G12G02G06G32G31
 -20180089.24247 -15701836.18647  20114510.006    20114509.5374   20114515.0844
        50.8004         47.8004
  -2733166.32744  -2103318.50146  23329144.126    23329145.9504   23329152.4504
        42.3004         39.7004
 -17241908.24445 -13412365.68347  21730856.196    21730855.8534   21730858.3624
        46.2004         43.3004
  -9461380.63244  -7358640.71946  22448218.498    22448218.3874   22448221.0274
        43.0004         40.4004
 -16080604.35546 -12507455.54347  21206451.594    21206451.7814   21206453.0154
        47.7004         44.9004
  -6679203.85845  -5187719.10246  23161591.471    23161590.1664   23161592.0774
        43.6004         40.9004
  -7350681.06843  -5708583.59146  23989172.599    23989172.8654   23989179.0284
        39.9004         37.6004
  -8712509.48845  -6767252.65947  22090606.129    22090606.2544   22090611.9374
        45.1004         42.3004
   -631264.30944   -480846.31246  22873059.867    22873060.4244   22873061.3494
        42.3004         39.7004
 19 10 19  0  3 30.0000000  0  9G25G24G29G14G12G02G06G32G31
 -20192406.14647 -15711433.77447  20112165.923    20112165.7804   20112171.2864
        50.8004         47.8004
  -2630225.21344  -2023104.65046  23348734.912    23348734.6024   23348741.1514
        42.5004         39.9004
 -17329027.21845 -13480250.59547  21714277.143    21714277.3194   21714279.5384
        46.2004         43.3004
  -9478819.74744  -7372229.66646  22444899.699    22444899.7154   22444903.4164
        43.0004         40.6004
 -16013179.01246 -12454916.33447  21219282.018    21219282.2144   21219284.3054
        47.7004         44.9004
  -6698082.09945  -5202429.40246  23157998.606    23157998.0514   23157998.6024
        43.6004         40.7004
  -7310841.49543  -5677539.76946  23996752.764    23996753.7484   23996759.8344
        39.9004         37.4004
  -8667254.03645  -6731988.69747  22099218.253    22099219.1194   22099224.0054
        45.1004         42.3004
   -720149.60144   -550107.56346  22856146.010    22856145.5834   22856147.0624
        42.3004         39.5004
 19 10 19  0  4  0.0000000  0  9G25G24G29G14G12G02G06G32G31
 -20204326.80747 -15720722.60547  20109897.729    20109897.2124   20109902.7124
        50.8004         47.7004
  -2527100.83844  -1942748.00146  23368358.763    23368359.3504   23368365.1474
        42.7004         40.0004
 -17415764.05345 -13547837.73647  21697771.806    21697771.8804   21697774.3764
        46.2004         43.3004
  -9495686.78844  -7385372.81646  22441690.013    22441689.6154   22441693.2784
        43.2004         40.4004
 -15945491.55646 -12402172.87447  21232162.683    21232162.5594   21232164.4114
        47.7004         44.9004
  -6716462.74845  -5216751.97346  23154500.922    23154500.1694   23154501.5654
        43.6004         40.7004
  -7270450.45943  -5646066.22846  24004441.552    24004440.4994   24004446.1734
        40.3004         37.9004
  -8621463.97145  -6696308.16047  22107931.392    22107931.7864   22107936.8554
        45.3004         42.3004
   -808809.40844   -619193.12246  22839273.998    22839274.5584   22839275.9514
        42.3004         39.7004
 19 10 19  0  4 30.0000000  0  9G25G24G29G14G12G02G06G32G31
 -20215851.21947 -15729702.67147  20107704.852    20107704.5474   20107709.5504
        50.8004         47.8004
  -2423794.98044  -1862249.93546  23388017.386    23388017.7344   23388023.4084
        42.7004         39.9004
 -17502116.56845 -13615125.39947  21681339.999    21681339.7024   21681341.9794
        46.3004         43.5004
  -9511980.72544  -7398069.39546  22438589.133    22438589.0144   22438591.8674
        43.0004         40.2004
 -15877543.31346 -12349226.19647  21245093.546    21245093.3844   21245094.5464
        47.9004         44.9004
  -6734345.15945  -5230686.28646  23151097.892    23151097.4414   23151099.1764
        43.6004         40.9004
  -7229509.25643  -5614163.97046  24012232.963    24012231.9054   24012237.4944
        40.4004         37.9004
  -8575141.19345  -6660212.52147  22116747.113    22116747.6234   22116752.3194
        45.3004         42.6004
   -897241.65344   -688101.35246  22822446.087    22822446.6734   22822448.1374
        42.3004         39.5004
 19 10 19  0  5  0.0000000  0  9G25G24G29G14G12G02G06G32G31
 -20226979.42647 -15738374.00047  20105587.290    20105586.8324   20105592.1924
        50.8004         47.8004
  -2320309.17044  -1781611.63946  23407710.357    23407710.2504   23407716.2874
        42.7004         39.9004
 -17588082.42946 -13682111.78447  21664980.384    21664981.0894   21664983.8154
        46.5004         43.7004
  -9527701.21644  -7410319.14746  22435598.297    22435597.3124   22435599.6194
        43.0004         40.2004
 -15809335.57246 -12296077.31947  21258072.580    21258072.2104   21258074.2704
        47.9004         44.9004
  -6751728.22545  -5244231.52446  23147789.172    23147789.1154   23147791.1544
        43.6004         40.7004
  -7188019.24443  -5581834.10646  24020126.681    24020126.7214   24020132.9634
        40.4004         37.6004
  -8528287.66845  -6623703.28547  22125663.355    22125663.8194   22125668.2474
        45.5004         42.6004
   -985444.04744   -756830.48546  22805661.961    22805662.6404   22805663.6254
        42.2004         39.3004
 19 10 19  0  5 30.0000000  0  9G25G24G29G14G12G02G06G32G31
 -20237711.42947 -15746736.60547  20103545.156    20103544.5494   20103549.7654
        50.8004         47.7004
  -2216645.53944  -1700834.79246  23427435.499    23427436.5804   23427443.0264
        42.7004         40.0004
 -17673660.14346 -13748795.70347  21648696.158    21648696.2214   21648699.2534
        46.7004         43.9004
  -9542847.82044  -7422121.70146  22432715.651    22432715.2264   22432717.9644
        43.0004         40.4004
 -15740869.52446 -12242727.15847  21271100.925    21271101.1504   21271102.4044
        47.9004         44.9004
  -6768611.28545  -5257387.15046  23144577.558    23144576.7904   23144579.2954
        43.7004         41.1004
  -7145981.77743  -5549077.62746  24028125.865    24028125.8754   24028131.4994
        40.1004         37.3004
  -8480905.31945  -6586781.99547  22134679.768    22134680.8854   22134685.7154
        45.5004         42.6004
  -1073414.53544   -825378.90246  22788921.414    22788921.4884   22788923.0174
        41.8004         38.6004
 19 10 19  0  6  0.0000000  0  9G25G24G29G14G12G02G06G32G31
 -20248047.27347 -15754790.51747  20101578.267    20101577.8614   20101582.9554
        50.8004         47.8004
  -2112805.42644  -1619920.41346  23447195.410    23447196.3074   23447202.8724
        42.7004         39.9004
 -17758847.91846 -13815175.77347  21632485.557    21632485.3904   21632488.1654
        46.9004         44.0004
  -9557420.05244  -7433476.70646  22429942.987    22429942.6324   22429945.4534
        43.2004         40.6004
 -15672146.64846 -12189176.88847  21284178.795    21284178.7294   21284180.6124
        47.9004         44.9004
  -6784993.18045  -5270152.24046  23141460.092    23141459.7054   23141460.9254
        43.7004         41.1004
  -7103398.25043  -5515895.67446  24036228.883    24036229.2014   24036234.3074
        39.7004         37.4004
  -8432996.15045  -6549450.20246  22143797.167    22143797.4274   22143801.4594
        45.1004         41.9004
  -1161151.36444   -893745.25146  22772225.651    22772225.5424   22772226.4484
        41.3004         38.3004
 19 10 19  0  6 30.0000000  0  9G25G24G29G14G12G02G06G32G31
 -20257987.06247 -15762535.80348  20099686.680    20099686.3124   20099692.0064
        50.8004         48.0004
  -2008790.36944  -1538869.73746  23466990.634    23466990.3514   23466995.9464
        42.7004         39.9004
 -17843643.95746 -13881250.59547  21616349.491    21616349.3304   21616352.0944
        46.9004         43.9004
  -9571417.57144  -7444383.88346  22427278.881    22427278.6294   22427281.0364
        43.0004         40.4004
 -15603167.75046 -12135427.10547  21297303.791    21297304.4144   21297307.3674
        47.9004         44.9004
  -6800873.14945  -5282526.22146  23138438.076    23138437.8544   23138439.1474
        43.7004         40.9004
  -7060270.04443  -5482289.23646  24044437.110    24044436.3374   24044441.7694
        39.9004         37.4004
  -8384562.14345  -6511709.43446  22153012.447    22153013.7224   22153018.0814
        44.6004         41.6004
  -1248651.97744   -961927.52746  22755574.762    22755575.2174   22755577.6294
        41.1004         38.6004
 19 10 19  0  7  0.0000000  0  9G25G24G29G14G12G02G06G32G31
 -20267530.77347 -15769972.46548  20097870.747    20097870.1544   20097875.5474
        51.0004         48.0004
  -1904602.14244  -1457684.10646  23486814.441    23486815.7854   23486821.6684
        42.3004         39.5004
 -17928045.95946 -13947018.37547  21600288.071    21600287.4664   21600290.1664
        46.9004         44.0004
  -9584839.88244  -7454842.84846  22424725.022    22424724.6704   22424728.1484
        42.9004         40.4004
 -15533934.01246 -12081478.75047  21310479.380    21310479.6894   21310482.1164
        47.7004         44.9004
  -6816250.13745  -5294508.27246  23135513.217    23135511.0824   23135512.6284
        43.7004         40.9004
  -7016598.58843  -5448259.52046  24052746.085    24052746.1964   24052753.7314
        39.7004         37.3004
  -8335605.27545  -6473561.24646  22162329.222    22162330.1714   22162334.2834
        44.4004         41.6004
  -1335914.97344  -1029924.66646  22738968.532    22738967.9194   22738971.9414
        40.6004         37.9004
 19 10 19  0  7 30.0000000  0  9G25G24G29G14G12G02G06G32G31
 -20276678.50047 -15777100.56547  20096129.670    20096129.3034   20096135.1094
        51.0004         47.8004
  -1800242.53044  -1376364.93146  23506673.942    23506675.1224   23506681.1914
        42.3004         39.5004
 -18012052.31046 -14012477.84647  21584301.181    21584301.3454   21584304.6524
        46.9004         44.0004
  -9597686.35344  -7464853.09546  22422279.625    22422279.4324   22422282.6524
        42.9004         39.9004
 -15464446.95046 -12027333.00347  21323702.183    21323701.7694   21323704.4674
        47.7004         44.7004
  -6831123.76944  -5306098.10046  23132680.629    23132679.8424   23132681.0954
        43.4004         40.6004
  -6972385.29843  -5413807.61146  24061159.187    24061159.9664   24061166.2424
        39.4004         36.7004
  -8286127.63445  -6435007.27146  22171744.151    22171744.3194   22171749.2264
        44.2004         41.2004
  -1422937.92043  -1097734.73046  22722410.562    22722408.8044   22722410.3834
        40.1004         37.6004
 19 10 19  0  8  0.0000000  0  9G25G24G29G14G12G02G06G32G31
 -20285430.25947 -15783920.11648  20094464.218    20094464.1094   20094469.4504
        51.0004         48.0004
  -1695712.89344  -1294913.27346  23526566.208    23526566.5764   23526571.4904
        42.2004         39.5004
 -18095661.09546 -14077627.54347  21568391.559    21568391.7984   21568394.3964
        47.0004         44.2004
  -9609956.92144  -7474414.58246  22419945.548    22419945.0854   22419947.8434
        42.9004         40.2004
 -15394707.69146 -11972990.72847  21336973.432    21336972.9474   21336975.9144
        47.5004         44.7004
  -6845493.29444  -5317295.11246  23129946.353    23129945.5264   23129947.0934
        43.2004         40.2004
  -6927631.70843  -5378934.67746  24069677.766    24069676.8294   24069680.0934
        39.4004         36.9004
  -8236131.27245  -6396049.07746  22181257.928    22181258.5594   22181263.6504
        44.1004         41.4004
  -1509718.61543  -1165356.03946  22705894.878    22705894.8444   22705898.2134
        40.1004         37.4004
 19 10 19  0  8 30.0000000  0  9G25G24G29G14G12G02G06G32G31
 -20293786.13947 -15790431.19148  20092874.373    20092874.0494   20092879.3804
        51.0004         48.0004
  -1591014.91344  -1213330.43546  23546488.936    23546489.8614   23546495.4004
        42.2004         39.7004
 -18178870.57546 -14142466.08147  21552558.040    21552557.8224   21552560.3644
        47.2004         44.4004
  -9621650.89744  -7483526.77946  22417720.157    22417719.9104   22417722.5224
        42.9004         40.2004
 -15324717.79346 -11918453.15347  21350291.600    21350291.3774   21350294.0094
        47.5004         44.5004
  -6859357.86144  -5328098.63946  23127308.248    23127307.0694   23127309.5994
        43.0004         40.2004
  -6882339.21643  -5343641.83046  24078296.275    24078296.5644   24078299.1324
        39.2004         36.6004
  -8185618.23745  -6356688.28846  22190871.635    22190871.2194   22190875.5754
        44.4004         41.8004
  -1596255.11543  -1232787.05546  22689426.438    22689427.9604   22689430.4534
        40.1004         37.8004
 19 10 19  0  9  0.0000000  0  9G25G24G29G14G12G02G06G32G31
 -20301746.21347 -15796633.85048  20091359.478    20091359.1034   20091364.7054
        51.0004         48.0004
  -1486150.06044  -1131617.56646  23566444.911    23566444.8014   23566450.5184
        42.3004         39.7004
 -18261678.76546 -14206991.93547  21536799.677    21536799.5644   21536802.9224
        47.2004         44.2004
  -9632768.02344  -7492189.47046  22415604.869    22415604.6974   22415607.3214
        42.9004         40.0004
 -15254477.36146 -11863720.37247  21363658.214    21363657.9874   21363660.7144
        47.4004         44.4004
  -6872716.66244  -5338508.07446  23124767.093    23124765.0904   23124768.1244
        43.0004         40.6004
  -6836509.37943  -5307930.25646  24087017.212    24087016.5214   24087022.1654
        39.0004         36.7004
  -8134590.65045  -6316926.55946  22200580.910    22200581.2804   22200586.0644
        44.4004         41.6004
  -1682545.16843  -1300026.05746  22673006.843    22673007.2064   22673009.4824
        40.3004         37.8004
 19 10 19  0  9 30.0000000  0  9G25G24G29G14G12G02G06G32G31
 -20309310.52947 -15802528.12648  20089919.929    20089919.5664   20089925.3464
        51.0004         48.0004
  -1381120.65944  -1049776.47946  23586432.211    23586432.0074   23586436.8104
        42.3004         39.7004
 -18344083.95046 -14271203.75147  21521118.363    21521118.4254   21521121.0724
        47.2004         44.2004
  -9643308.03144  -7500402.46046  22413599.557    22413598.6124   22413601.8244
        43.0004         40.6004
 -15183988.20246 -11808793.76747  21377071.650    21377071.6714   21377074.2314
        47.4004         44.5004
  -6885569.10144  -5348522.93646  23122320.624    23122319.6714   23122321.6254
        43.4004         40.6004
  -6790143.66643  -5271801.13646  24095837.789    24095838.0734   24095843.1954
        38.9004         36.4004
  -8083050.62045  -6276765.51746  22210387.968    22210389.1244   22210393.6774
        44.4004         41.6004
  -1768586.83644  -1367071.52146  22656634.676    22656634.7184   22656636.0584
        40.6004         38.1004
 19 10 19  0 10  0.0000000  0  9G25G24G29G14G12G02G06G32G31
 -20316479.16347 -15808114.07348  20088556.211    20088555.5484   20088561.3324
        51.2004         48.2004
  -1275928.15244   -967808.29646  23606451.145    23606449.7084   23606454.3734
        42.3004         39.7004
 -18426084.26846 -14335100.07647  21505514.287    21505514.1094   21505517.1734
        47.2004         44.2004
  -9653270.45444  -7508165.39546  22411703.663    22411703.2454   22411706.0904
        43.4004         40.9004
 -15113251.55146 -11753674.32947  21390532.423    21390532.2314   21390535.2544
        47.2004         44.2004
  -6897914.04245  -5358142.35646  23119971.605    23119970.9314   23119972.8814
        43.6004         41.1004
  -6743243.68243  -5235255.67546  24104764.761    24104764.7324   24104767.8894
        38.9004         36.6004
  -8031000.25145  -6236206.80846  22220294.118    22220294.2534   22220298.6744
        44.8004         41.9004
  -1854378.19344  -1433921.94646  22640308.515    22640308.9334   22640310.6194
        40.9004         38.6004
 19 10 19  0 10 30.0000000  0  9G25G24G29G14G12G02G06G32G31
 -20323252.20447 -15813391.77248  20087267.270    20087267.0254   20087272.1294
        51.2004         48.2004
  -1170574.08944   -885714.21146  23626495.180    23626497.0904   23626503.0324
        42.5004         39.9004
 -18507678.19346 -14398679.75547  21489987.445    21489987.7014   21489989.9504
        47.2004         44.4004
  -9662655.58845  -7515478.49146  22409917.437    22409917.8964   22409919.2364
        43.6004         40.9004
 -15042268.85946 -11698363.14347  21404040.467    21404040.0664   21404042.3134
        47.2004         44.4004
  -6909751.01345  -5367365.96746  23117719.529    23117719.5124   23117720.6894
        43.7004         41.1004
  -6695810.90943  -5198295.08246  24113789.304    24113789.7544   24113795.5784
        38.7004         36.4004
  -7978441.68445  -6195252.10247  22230295.607    22230296.0474   22230300.6484
        44.9004         42.1004
  -1939917.11744  -1500575.67146  22624031.313    22624031.2524   22624034.4234
        41.5004         39.2004
 19 10 19  0 11  0.0000000  0  9G25G24G29G14G12G02G06G32G31
 -20329629.73547 -15818361.27748  20086053.546    20086053.2244   20086058.3574
        51.0004         48.0004
  -1065060.23944   -803495.64846  23646575.054    23646576.7114   23646580.8884
        42.5004         39.9004
 -18588863.29346 -14461940.85347  21474538.824    21474538.8374   21474541.2024
        47.2004         44.4004
  -9671462.88645  -7522341.32946  22408241.941    22408241.5824   22408243.2634
        43.7004         40.7004
 -14971040.91646 -11642860.87047  21417593.781    21417593.9854   21417596.5494
        47.2004         44.2004
  -6921079.58145  -5376193.39946  23115564.682    23115564.2134   23115563.8164
        43.7004         40.9004
  -6647846.95343  -5160920.59446  24122918.059    24122917.5354   24122923.0844
        39.0004         36.7004
  -7925377.12245  -6153903.10146  22240392.580    22240393.3834   22240398.5644
        44.8004         41.9004
  -2025201.39644  -1567030.96946  22607802.411    22607802.7984   22607804.6364
        42.0004         39.3004
 19 10 19  0 11 30.0000000  0  9G25G24G29G14G12G02G06G32G31
 -20335611.79747 -15823022.61848  20084915.878    20084914.9524   20084920.4034
        51.2004         48.0004
   -959388.03644   -721153.67246  23666686.735    23666685.6484   23666690.4744
        42.5004         39.9004
 -18669638.08646 -14524882.23347  21459167.611    21459167.7874   21459170.0154
        47.4004         44.5004
  -9679691.60345  -7528753.33346  22406676.012    22406675.3744   22406677.2864
        43.6004         40.6004
 -14899568.92846 -11587168.43847  21431195.542    21431195.5014   21431197.0084
        47.2004         44.4004
  -6931899.07545  -5384624.17746  23113505.355    23113504.5254   23113505.1624
        43.6004         40.7004
  -6599353.43543  -5123133.40246  24132146.045    24132146.1994   24132149.6004
        39.0004         36.7004
  -7871808.73045  -6112161.52446  22250586.907    22250587.0864   22250592.6754
        44.6004         41.8004
  -2110228.58744  -1633285.92146  22591621.412    22591621.9244   22591624.9644
        42.3004         40.0004
 19 10 19  0 12  0.0000000  0  9G25G24G29G14G12G02G06G32G31
 -20341198.53747 -15827375.91148  20083851.675    20083851.4544   20083857.0194
        51.0004         48.0004
   -853559.51144   -638689.89446  23686823.510    23686824.3334   23686828.3564
        42.7004         39.9004
 -18750000.98246 -14587502.65347  21443875.489    21443874.9254   21443877.6794
        47.4004         44.5004
  -9687342.12144  -7534714.79646  22405220.277    22405219.9834   22405221.4404
        43.2004         40.2004
 -14827854.06246 -11531286.73747  21444841.786    21444842.2894   21444844.0174
        47.2004         44.2004
  -6942208.85844  -5392657.76146  23111542.747    23111541.6274   23111543.1514
        43.4004         40.4004
  -6550331.93343  -5084934.82646  24141472.004    24141473.3134   24141478.1054
        38.9004         36.6004
  -7817738.70045  -6070029.05846  22260875.438    22260877.0324   22260880.7924
        44.6004         41.4004
  -2194996.69144  -1699339.00446  22575492.427    22575491.7624   22575493.7104
        42.9004         40.4004
 19 10 19  0 12 30.0000000  0  9G25G24G29G14G12G02G06G32G31
 -20346390.04147 -15831421.24048  20082864.395    20082863.9664   20082869.3494
        51.0004         48.0004
   -747576.09444   -556105.41646  23706990.417    23706991.9564   23706996.7514
        42.7004         39.9004
 -18829950.06446 -14649800.62747  21428661.102    21428661.1494   21428663.5124
        47.5004         44.5004
  -9694413.97544  -7540225.34746  22403874.414    22403874.4954   22403875.2034
        42.9004         39.9004
 -14755897.69846 -11475216.84947  21458534.349    21458534.9024   21458536.9364
        47.0004         44.2004
  -6952008.21544  -5400293.59946  23109677.314    23109676.6724   23109678.0314
        43.2004         40.2004
  -6500784.15243  -5046326.17346  24150902.897    24150902.8374   24150908.3244
        39.0004         36.9004
  -7763169.26745  -6027507.45346  22271260.402    22271260.9644   22271265.0014
        44.4004         41.6004
  -2279504.04544  -1765188.89846  22559410.383    22559410.4984   22559412.7224
        43.2004         40.6004
 19 10 19  0 13  0.0000000  0  9G25G24G29G14G12G02G06G32G31
 -20351186.41147 -15835158.67048  20081950.891    20081950.4774   20081956.7474
        51.0004         48.0004
   -641439.54844   -473401.61646  23727190.363    23727188.8044   23727193.8114
        42.7004         40.0004
 -18909483.55546 -14711774.75447  21413526.272    21413526.2644   21413529.1714
        47.4004         44.5004
  -9700907.08044  -7545284.92946  22402637.842    22402638.7324   22402640.3714
        42.5004         39.7004
 -14683701.21246 -11418959.85147  21472273.053    21472272.8514   21472275.1244
        47.0004         44.0004
  -6961296.63744  -5407531.30446  23107909.827    23107909.6644   23107910.2894
        43.0004         40.6004
  -6450711.61843  -5007308.61146  24160430.853    24160432.2724   24160435.7764
        39.2004         36.7004
  -7708102.65345  -5984598.42546  22281739.111    22281739.3734   22281744.0734
        44.4004         41.2004
  -2363748.48744  -1830833.93246  22543380.053    22543379.8414   22543381.3324
        43.4004         40.7004
 19 10 19  0 13 30.0000000  0  9G25G24G29G14G12G02G06G32G31
 -20355587.73947 -15838588.27247  20081113.538    20081113.2914   20081118.9334
        50.8004         47.8004
   -535151.42244   -390579.70546  23747416.815    23747415.2294   23747419.3634
        42.7004         39.9004
 -18988599.56546 -14773423.57347  21398470.432    21398470.5514   21398473.7054
        47.4004         44.4004
  -9706821.39844  -7549893.49046  22401513.463    22401512.1734   22401515.6444
        42.5004         39.9004
 -14611264.81346 -11362515.91247  21486057.089    21486057.7604   21486059.9134
        47.0004         44.2004
  -6970073.56644  -5414370.45446  23106239.726    23106239.4444   23106240.9164
        43.4004         40.6004
  -6400116.07843  -4967883.52746  24170060.203    24170059.1884   24170063.8054
        38.7004         36.2004
  -7652541.13845  -5941303.75446  22292310.700    22292311.5754   22292317.3454
        44.1004         41.2004
  -2447727.49545  -1896272.11146  22527398.141    22527398.3484   22527400.6234
        43.9004         41.1004
 19 10 19  0 14  0.0000000  0  9G25G24G29G14G12G02G06G32G31
 -20359594.13747 -15841710.14548  20080351.374    20080350.9304   20080356.6314
        50.8004         48.0004
   -428713.36344   -307640.95946  23767668.989    23767668.4904   23767673.8004
        42.5004         39.7004
 -19067296.35346 -14834745.72447  21383495.966    21383496.0134   21383498.3234
        47.4004         44.5004
  -9712156.60244  -7554050.80846  22400497.932    22400497.4564   22400499.7364
        42.7004         39.9004
 -14538590.02246 -11305886.23947  21499887.540    21499886.8224   21499889.6184
        47.0004         44.0004
  -6978338.49345  -5420810.64946  23104668.273    23104667.5604   23104668.0244
        43.6004         40.9004
  -6348999.24643  -4928052.24645  24179786.879    24179786.3274   24179790.8774
        38.3004         35.9004
  -7596486.95145  -5897625.18146  22302978.033    22302978.0394   22302984.7914
        44.2004         41.2004
  -2531439.20745  -1961502.01946  22511468.550    22511468.7724   22511471.0904
        44.1004         41.4004
 19 10 19  0 14 30.0000000  0  9G25G24G29G14G12G02G06G32G31
 -20363205.73647 -15844524.37547  20079664.025    20079663.6634   20079669.1394
        50.8004         47.8004
   -322127.72244   -224587.22046  23787952.190    23787952.2474   23787956.7734
        42.3004         39.5004
 -19145572.59646 -14895740.18247  21368600.142    21368599.9914   21368602.9434
        47.4004         44.5004
  -9716912.86344  -7557756.98746  22399591.986    22399592.4374   22399594.9324
        42.7004         40.2004
 -14465678.43246 -11249072.02947  21513762.112    21513762.3644   21513763.4654
        47.0004         44.2004
  -6986090.85545  -5426851.43646  23103193.166    23103191.5614   23103192.8674
        43.6004         40.9004
  -6297362.80243  -4887816.02146  24189609.746    24189611.3884   24189616.3844
        38.2004         36.0004
  -7539942.37545  -5853564.50146  22313738.651    22313739.6034   22313744.1674
        44.2004         41.6004
  -2614881.54445  -2026522.03146  22495590.836    22495590.6024   22495592.3954
        44.2004         41.8004
 19 10 19  0 15  0.0000000  0  9G25G24G29G14G12G02G06G32G31
 -20366422.61947 -15847031.04047  20079052.084    20079051.6034   20079056.9304
        50.8004         47.8004
   -215395.37744   -141419.16046  23808260.902    23808261.5114   23808266.7574
        42.2004         39.3004
 -19223426.49846 -14956405.55247  21353784.972    21353784.9984   21353787.6284
        47.4004         44.5004
  -9721090.04444  -7561011.93546  22398798.349    22398797.9674   22398800.1784
        43.0004         40.6004
 -14392531.74346 -11192074.63347  21527681.220    21527681.1894   21527683.2134
        47.0004         44.0004
  -6993330.16645  -5432492.44646  23101814.742    23101813.6914   23101815.2494
        43.6004         40.7004
  -6245208.54543  -4847176.36246  24199537.047    24199537.3144   24199541.0054
        38.3004         36.2004
  -7482909.76145  -5809123.50646  22324591.366    22324592.5614   22324596.7234
        44.1004         41.2004
  -2698052.26645  -2091330.36946  22479763.532    22479763.8334   22479766.2154
        44.6004         41.9004
 19 10 19  0 15 30.0000000  0  9G25G24G29G14G12G02G06G32G31
 -20369244.94447 -15849230.25547  20078514.780    20078514.4604   20078519.9044
        50.8004         47.8004
   -108518.95444    -58138.83046  23828600.089    23828600.3124   23828603.9804
        42.2004         39.3004
 -19300856.40446 -15016740.52947  21339050.835    21339050.7084   21339052.8974
        47.4004         44.5004
  -9724687.98544  -7563815.52146  22398112.695    22398112.9954   22398115.0814
        43.2004         40.4004
 -14319149.63546 -11134893.79047  21541644.804    21541645.4234   21541647.1374
        46.9004         43.9004
  -7000055.81545  -5437733.19546  23100534.220    23100533.9414   23100534.6584
        43.6004         40.9004
  -6192538.11943  -4806134.43246  24209559.526    24209560.1644   24209564.4234
        38.7004         36.4004
  -7425391.41145  -5764304.03246  22335537.967    22335538.3394   22335542.8204
        44.2004         41.6004
  -2780949.54845  -2155925.64146  22463988.302    22463988.8714   22463990.8674
        44.8004         41.9004
 19 10 19  0 16  0.0000000  0  9G25G24G29G14G12G02G06G32G31
 -20371672.78247 -15851122.07348  20078053.360    20078052.6984   20078058.1584
        50.8004         48.0004
     -1499.26844     25253.10846  23848965.849    23848965.7034   23848970.5264
        42.2004         39.5004
 -19377860.59046 -15076743.77847  21324397.016    21324397.0924   21324399.7274
        47.5004         44.7004
  -9727706.87144  -7566167.91046  22397538.109    22397537.8144   22397539.3884
        43.0004         40.2004
 -14245533.77746 -11077530.79447  21555653.708    21555653.9554   21555655.8494
        46.9004         43.9004
  -7006267.53445  -5442573.48146  23099352.174    23099351.7574   23099352.7514
        43.6004         40.7004
  -6139353.33443  -4764691.76346  24219680.486    24219680.7714   24219684.4864
        38.5004         36.2004
  -7367389.65245  -5719107.88546  22346574.775    22346575.2824   22346580.4684
        44.6004         41.8004
  -2863571.06245  -2220306.06246  22448266.770    22448266.6364   22448268.3514
        44.8004         41.9004
 19 10 19  0 16 30.0000000  0  9G25G24G29G14G12G02G06G32G31
 -20373706.30747 -15852706.64147  20077666.538    20077665.8804   20077670.8784
        51.0004         47.8004
    105661.72944    108755.18446  23869357.717    23869357.3404   23869361.7874
        42.2004         39.3004
 -19454437.29046 -15136413.93047  21309824.997    21309825.1384   21309827.4584
        47.7004         44.9004
  -9730146.85244  -7568069.20546  22397073.841    22397073.9704   22397077.0014
        42.9004         39.9004
 -14171685.50246 -11019986.70747  21569707.108    21569706.9504   21569709.2244
        46.7004         43.9004
  -7011965.17145  -5447013.18746  23098267.826    23098267.5684   23098268.5434
        43.6004         40.9004
  -6085655.94843  -4722849.61645  24229896.785    24229896.8104   24229902.6404
        38.0004         35.7004
  -7308906.85445  -5673536.88846  22357703.593    22357704.0834   22357709.0984
        44.4004         41.6004
  -2945914.80645  -2284470.01346  22432596.709    22432596.8284   22432598.7494
        44.8004         41.8004
 19 10 19  0 17  0.0000000  0  9G25G24G29G14G12G02G06G32G31
 -20375345.68247 -15853984.07148  20077353.712    20077353.5204   20077359.3624
        50.8004         48.0004
    212962.39544    192366.09646  23889774.788    23889775.8104   23889780.6794
        42.2004         39.3004
 -19530584.74846 -15195749.60047  21295335.124    21295334.7304   21295336.9304
        47.7004         44.7004
  -9732007.89844  -7569519.38646  22396719.473    22396718.6834   22396721.8664
        42.3004         39.0004
 -14097605.96646 -10962262.41847  21583803.949    21583804.0514   21583805.6564
        46.7004         43.7004
  -7017147.88845  -5451051.66046  23097281.546    23097280.3044   23097283.4524
        43.6004         40.7004
  -6031447.78043  -4680609.47745  24240212.966    24240213.5794   24240218.2894
        38.0004         35.9004
  -7249945.36245  -5627592.90546  22368924.116    22368924.2134   22368928.5104
        44.4004         41.4004
  -3027978.48745  -2348415.73246  22416980.552    22416980.6654   22416982.8384
        44.6004         41.9004
 19 10 19  0 17 30.0000000  0  9G25G24G29G14G12G02G06G32G31
 -20376590.97947 -15854954.43547  20077117.329    20077116.7084   20077122.1294
        51.0004         47.8004
    320400.79844    276084.32346  23910220.085    23910220.6254   23910226.8334
        42.2004         39.5004
 -19606301.50546 -15254749.65847  21280926.485    21280926.3384   21280928.9984
        47.7004         44.9004
  -9733289.72444  -7570518.22146  22396475.275    22396474.4554   22396477.5904
        41.8004         38.8004
 -14023296.27646 -10904358.79147  21597944.960    21597944.6794   21597946.8224
        46.7004         43.9004
  -7021815.15245  -5454688.46846  23096393.268    23096392.6944   23096394.9074
        43.6004         40.9004
  -5976730.63843  -4637972.72246  24250626.175    24250626.5324   24250631.1174
        38.5004         36.2004
  -7190507.56945  -5581277.76746  22380234.797    22380234.5574   22380239.6434
        44.2004         41.4004
  -3109759.78445  -2412141.40346  22401418.652    22401418.1994   22401419.3264
        44.6004         41.9004
 19 10 19  0 18  0.0000000  0  9G25G24G29G14G12G02G06G32G31
 -20377442.38747 -15855617.87047  20076955.208    20076954.6544   20076959.9834
        50.8004         47.8004
    427975.32244    359908.60646  23930691.977    23930691.1834   23930696.6744
        42.0004         39.2004
 -19681585.87346 -15313412.78247  21266599.772    21266600.2494   21266602.8594
        47.7004         44.9004
  -9733992.44544  -7571065.80346  22396341.599    22396341.0734   22396343.5234
        41.5004         39.0004
 -13948757.55846 -10846276.69947  21612128.826    21612128.7224   21612130.8814
        46.5004         43.7004
  -7025967.02845  -5457923.68546  23095603.446    23095603.1544   23095604.6114
        43.6004         40.9004
  -5921506.35643  -4594940.78746  24261135.657    24261134.8004   24261140.4624
        38.3004         36.2004
  -7130595.90545  -5534593.34246  22391634.891    22391635.1854   22391639.3374
        44.1004         41.1004
  -3191256.77945  -2475645.55447  22385909.376    22385910.0204   22385912.0164
        44.8004         42.1004
 19 10 19  0 18 30.0000000  0  9G25G24G29G14G12G02G06G32G31
 -20377900.01047 -15855974.46048  20076868.117    20076867.2684   20076873.3154
        50.8004         48.0004
    535684.21044    443837.59746  23951187.686    23951187.3164   23951194.3584
        42.0004         39.3004
 -19756436.35946 -15371737.81347  21252356.783    21252356.6304   21252359.3984
        47.9004         44.9004
  -9734115.92644  -7571162.02546  22396318.163    22396318.1444   22396320.7844
        41.8004         39.3004
 -13873991.76246 -10788017.65747  21626356.240    21626356.7624   21626358.2554
        46.5004         43.7004
  -7029602.98145  -5460756.85546  23094912.208    23094911.6804   23094913.0034
        43.6004         40.7004
  -5865776.74643  -4551515.13246  24271740.909    24271740.7714   24271745.6924
        38.3004         36.0004
  -7070212.74845  -5487541.54846  22403125.541    22403126.2994   22403130.2914
        44.1004         41.4004
  -3272467.58545  -2538926.70547  22370456.106    22370455.1144   22370457.1804
        44.9004         42.1004
 19 10 19  0 19  0.0000000  0  9G25G24G29G14G12G02G06G32G31
 -20377964.05247 -15856024.35748  20076855.073    20076855.1364   20076860.9644
        50.8004         48.0004
    643525.79944    527869.99846  23971709.102    23971708.3984   23971715.4944
        42.0004         39.2004
 -19830851.36246 -15429723.49947  21238195.967    21238196.4914   21238198.5354
        47.9004         45.1004
  -9733661.03644  -7570807.57146  22396406.417    22396405.4304   22396408.5224
        42.7004         40.4004
 -13798998.42946 -10729581.31647  21640626.370    21640626.6964   21640628.8244
        46.5004         43.3004
  -7032722.73145  -5463187.82946  23094318.893    23094318.0754   23094319.3004
        43.6004         40.9004
  -5809543.71643  -4507697.18446  24282443.782    24282443.1184   24282446.5794
        38.5004         36.2004
  -7009360.52345  -5440124.26646  22414705.742    22414707.3204   22414710.3614
        44.1004         41.2004
  -3353389.90445  -2601983.05647  22355056.675    22355058.0174   22355058.7944
        44.9004         42.3004
 19 10 19  0 19 30.0000000  0  9G25G24G29G14G12G02G06G32G31
 -20377634.63847 -15855767.66648  20076918.497    20076917.9234   20076923.6864
        50.8004         48.0004
    751498.75644    612004.73946  23992256.057    23992255.5444   23992261.3664
        42.0004         39.3004
 -19904829.26846 -15487368.60247  21224118.203    21224118.6114   21224121.0104
        47.9004         45.1004
  -9732627.59644  -7570002.31446  22396602.947    22396602.5654   22396605.1174
        43.2004         40.7004
 -13723779.37945 -10670969.09447  21654939.999    21654940.5144   21654942.8814
        46.3004         43.5004
  -7035326.14345  -5465216.44946  23093822.489    23093822.2014   23093823.1034
        43.6004         40.9004
  -5752809.14743  -4463488.44546  24293237.869    24293238.1614   24293242.1964
        38.3004         36.0004
  -6948041.75045  -5392343.40046  22426374.044    22426374.5944   22426379.4984
        44.1004         41.2004
  -3434021.44745  -2664812.81947  22339713.115    22339713.1994   22339714.4714
        45.3004         42.5004
 19 10 19  0 20  0.0000000  0  9G25G24G29G14G12G02G06G32G31
 -20376911.90547 -15855204.50047  20077055.463    20077055.2604   20077061.1244
        50.8004         47.8004
    859600.95544    696240.22846  24012826.546    24012826.8634   24012833.0804
        42.0004         39.3004
 -19978368.24546 -15544671.68247  21210123.744    21210124.0944   21210126.9054
        47.9004         44.9004
  -9731015.84644  -7568746.42846  22396909.112    22396908.4694   22396911.3844
        43.4004         40.7004
 -13648335.96845 -10612182.04247  21669296.921    21669296.7424   21669298.4834
        46.2004         43.2004
  -7037412.59445  -5466842.24446  23093426.202    23093425.3464   23093426.3764
        43.6004         40.7004
  -5695574.88643  -4418890.32346  24304129.653    24304130.1154   24304133.8224
        38.3004         36.0004
  -6886258.80545  -5344200.86646  22438131.357    22438132.2454   22438136.1484
        44.2004         41.4004
  -3514360.12645  -2727414.38447  22324425.462    22324425.4964   22324426.3864
        45.5004         42.8004
 19 10 19  0 20 30.0000000  0  9G25G24G29G14G12G02G06G32G31
 -20375796.05747 -15854335.01047  20077268.326    20077267.9244   20077273.3574
        50.8004         47.8004
    967830.28744    780574.77046  24033422.164    24033422.9944   24033428.8304
        42.0004         39.5004
 -20051467.05246 -15601631.77447  21196213.941    21196213.4854   21196216.4634
        47.7004         44.9004
  -9728825.86544  -7567039.98146  22397325.768    22397325.4234   22397327.7974
        43.2004         40.2004
 -13572669.06645 -10553220.83647  21683695.715    21683695.3764   21683697.7574
        46.0004         43.2004
  -7038981.87645  -5468065.03646  23093127.680    23093126.7744   23093128.4424
        43.6004         40.9004
  -5637842.93043  -4373904.39446  24315116.103    24315116.4274   24315120.2394
        38.3004         36.2004
  -6824014.19245  -5295698.60246  22449975.854    22449975.8124   22449980.7924
        44.1004         40.9004
  -3594404.30045  -2789786.47447  22309193.543    22309193.4084   22309195.0754
        45.5004         42.6004
 19 10 19  0 21  0.0000000  0  9G25G24G29G14G12G02G06G32G31
 -20374287.24747 -15853159.31647  20077555.212    20077554.9354   20077560.4764
        50.8004         47.8004
   1076185.52444    865007.40946  24054043.105    24054043.1824   24054047.2624
        42.0004         39.3004
 -20124123.98946 -15658247.56347  21182387.504    21182387.8284   21182390.1954
        47.9004         45.1004
  -9726057.96544  -7564883.17946  22397852.912    22397851.8604   22397854.4684
        42.9004         39.9004
 -13496779.80045 -10494086.36047  21698136.852    21698137.4274   21698138.5994
        46.0004         43.2004
  -7040033.71445  -5468884.65646  23092925.393    23092925.7414   23092927.8964
        43.6004         40.7004
  -5579615.11643  -4328532.06546  24326196.347    24326196.6654   24326200.7354
        38.5004         36.0004
  -6761310.46845  -5246838.57846  22461907.987    22461908.6964   22461912.6114
        43.7004         41.1004
  -3674151.27045  -2851926.96447  22294018.235    22294017.3754   22294019.1944
        45.5004         42.3004
 19 10 19  0 21 30.0000000  0  9G25G24G29G14G12G02G06G32G31
 -20372385.62947 -15851677.53948  20077917.315    20077917.0294   20077922.3674
        50.8004         48.0004
   1184665.19644    949537.04146  24074686.292    24074685.7414   24074689.9744
        41.8004         39.0004
 -20196337.48846 -15714517.79647  21168646.208    21168646.0634   21168648.1394
        47.9004         44.9004
  -9722712.35244  -7562276.19846  22398489.609    22398488.9544   22398490.6894
        42.3004         39.5004
 -13420669.50245 -10434779.65347  21712619.359    21712620.1434   21712622.2654
        45.8004         43.0004
  -7040567.57645  -5469300.62846  23092825.312    23092824.4484   23092825.8704
        43.6004         40.7004
  -5520893.46643  -4282774.92146  24337371.112    24337370.5464   24337375.1404
        38.5004         36.2004
  -6698150.05645  -5197622.69746  22473927.523    22473927.5164   22473932.2414
        44.1004         41.4004
  -3753598.58845  -2913833.95647  22278899.749    22278899.9894   22278900.9694
        45.3004         42.5004
 19 10 19  0 22  0.0000000  0  9G25G24G29G14G12G02G06G32G31
 -20370091.39847 -15849889.83847  20078354.231    20078353.6984   20078358.7304
        50.8004         47.8004
   1293267.33744   1034162.08646  24095351.723    24095351.7974   24095355.7944
        41.6004         38.6004
 -20268106.22346 -15770441.46847  21154988.745    21154988.3844   21154991.6514
        47.9004         45.1004
  -9718789.44444  -7559219.40446  22399235.748    22399235.7894   22399237.0824
        42.2004         39.5004
 -13344339.55545 -10375301.79147  21727145.577    21727144.9194   21727147.3544
        45.8004         42.8004
  -7040584.09044  -5469313.49046  23092820.992    23092820.6134   23092822.1424
        43.4004         40.7004
  -5461679.92543  -4236634.52746  24348638.012    24348638.0154   24348640.7874
        38.5004         36.2004
  -6634535.47045  -5148052.90346  22486032.857    22486033.5734   22486037.7974
        44.1004         41.1004
  -3832744.92345  -2975506.42747  22263838.554    22263839.4194   22263840.4014
        45.3004         42.5004
 19 10 19  0 22 30.0000000  0  9G25G24G29G14G12G02G06G32G31
 -20367404.76647 -15847796.36647  20078864.978    20078864.6514   20078870.0404
        50.8004         47.8004
   1401990.14944   1118881.17446  24116039.166    24116039.5974   24116046.3484
        41.3004         38.5004
 -20339428.25346 -15826017.06447  21141416.204    21141416.4974   21141419.3274
        47.9004         45.1004
  -9714288.95244  -7555712.52546  22400091.826    22400091.1284   22400094.5634
        42.3004         39.9004
 -13267789.98045 -10315652.78547  21741712.375    21741712.8024   21741713.9724
        45.8004         43.0004
  -7040082.60844  -5468922.70746  23092917.427    23092916.7814   23092918.7574
        43.4004         40.7004
  -5401976.42343  -4190112.31046  24360000.394    24360001.0614   24360003.0884
        38.7004         36.4004
  -6570469.31545  -5098131.23546  22498223.938    22498224.3594   22498229.5224
        43.9004         40.9004
  -3911587.64545  -3036942.30047  22248836.074    22248835.6504   22248836.8814
        45.3004         42.6004
 19 10 19  0 23  0.0000000  0  9G25G24G29G14G12G02G06G32G31
 -20364325.87347 -15845397.24747  20079451.108    20079450.5454   20079455.8054
        50.8004         47.8004
   1510832.08444   1203693.07346  24136750.738    24136752.1774   24136756.7694
        40.9004         38.1004
 -20410302.40946 -15881243.65847  21127929.928    21127929.8744   21127933.0514
        48.1004         45.2004
  -9709211.66844  -7551756.22446  22401057.931    22401057.6744   22401060.2744
        42.5004         40.0004
 -13191022.72845 -10255834.16847  21756321.680    21756321.0354   21756322.5924
        45.8004         43.0004
  -7039063.03344  -5468128.22146  23093112.036    23093110.8834   23093112.2324
        43.4004         40.7004
  -5341785.01943  -4143209.92246  24371453.519    24371453.2514   24371457.4604
        38.9004         36.6004
  -6505954.06245  -5047859.64846  22510501.128    22510501.4474   22510506.1464
        43.9004         41.2004
  -3990124.86445  -3098140.11947  22233890.476    22233890.8334   22233891.5724
        45.5004         42.8004
 19 10 19  0 23 30.0000000  0  9G25G24G29G14G12G02G06G32G31
 -20360854.90947 -15842692.60847  20080111.578    20080111.3374   20080116.5284
        50.8004         47.8004
   1619790.87444   1288596.05246  24157487.146    24157487.2434   24157491.9344
        40.6004         37.8004
 -20480727.27846 -15936120.14547  21114528.517    21114528.6614   21114530.8064
        48.1004         45.2004
  -9703558.24944  -7547350.98546  22402133.992    22402133.5574   22402135.9844
        42.7004         40.0004
 -13114038.62845 -10195846.59647  21770970.618    21770970.7804   21770971.9524
        45.8004         42.8004
  -7037524.95945  -5466929.70946  23093405.027    23093403.7644   23093405.2624
        43.6004         40.7004
  -5281107.74343  -4095928.93746  24383000.698    24383000.1884   24383005.0244
        38.9004         36.4004
  -6440992.35745  -4997240.16146  22522863.223    22522863.3524   22522868.2044
        44.1004         41.1004
  -4068354.23445  -3159098.06947  22219003.591    22219003.4924   22219005.4314
        45.5004         42.6004
 19 10 19  0 24  0.0000000  0  9G25G24G29G14G12G02G06G32G31
 -20356992.06447 -15839682.61747  20080846.637    20080846.3594   20080851.6324
        50.8004         47.8004
   1728865.18543   1373589.01146  24178244.173    24178241.7644   24178248.1714
        40.1004         37.3004
 -20550701.43046 -15990645.42547  21101213.342    21101212.9314   21101214.7304
        48.2004         45.2004
  -9697328.49444  -7542496.65746  22403319.476    22403319.2894   22403320.6144
        42.5004         39.7004
 -13036839.06945 -10135691.09547  21785660.559    21785660.6494   21785662.8394
        45.8004         42.8004
  -7035468.43245  -5465327.21746  23093795.478    23093795.5344   23093797.1054
        43.7004         40.9004
  -5219946.54443  -4048270.87546  24394636.368    24394638.0354   24394643.4484
        38.7004         36.4004
  -6375586.74445  -4946274.75346  22535308.852    22535309.2784   22535313.2364
        43.9004         40.9004
  -4146273.46445  -3219814.34647  22204176.140    22204176.2474   22204177.6854
        45.5004         42.8004
 19 10 19  0 24 30.0000000  0  9G25G24G29G14G12G02G06G32G31
 -20352737.53647 -15836367.40847  20081656.422    20081656.0104   20081661.1954
        50.8004         47.8004
   1838053.69943   1458670.98246  24199022.811    24199020.9664   24199026.3814
        39.9004         37.6004
 -20620222.97646 -16044818.03647  21087983.914    21087983.5504   21087985.7784
        48.2004         45.4004
  -9690523.23144  -7537193.86146  22404614.715    22404614.2824   22404616.5464
        42.3004         39.5004
 -12959425.15245 -10075368.59047  21800391.163    21800391.3294   21800394.9094
        45.6004         42.6004
  -7032893.50145  -5463320.76046  23094285.029    23094285.6294   23094287.2224
        43.6004         40.7004
  -5158303.49243  -4000237.35146  24406368.690    24406367.9874   24406373.5674
        38.5004         36.2004
  -6309739.75645  -4894965.44446  22547839.760    22547840.5984   22547844.5314
        43.9004         41.1004
  -4223880.81045  -3280287.61847  22189408.675    22189408.2734   22189409.5564
        45.8004         43.0004
 19 10 19  0 25  0.0000000  0  9G25G24G29G14G12G02G06G32G31
 -20348091.53147 -15832747.15247  20082540.214    20082539.8894   20082545.3544
        50.8004         47.8004
   1947353.96643   1543839.99646  24219820.491    24219821.1654   24219825.5834
        39.9004         37.4004
 -20689290.95446 -16098637.23447  21074840.195    21074840.3414   21074842.4304
        48.2004         45.2004
  -9683142.54744  -7531442.67646  22406018.525    22406019.0624   22406020.5864
        42.2004         39.3004
 -12881797.44545 -10014879.49747  21815164.252    21815163.9084   21815166.6674
        45.6004         42.8004
  -7029799.87245  -5460910.13646  23094874.424    23094873.5644   23094875.6894
        43.7004         40.9004
  -5096180.62343  -3951829.89446  24418188.794    24418189.0144   24418193.8514
        38.5004         36.2004
  -6243454.08645  -4843314.29246  22560453.311    22560453.5124   22560457.9834
        43.7004         40.9004
  -4301174.17145  -3340516.19947  22174699.639    22174699.6764   22174701.4104
        46.0004         43.0004
 19 10 19  0 25 30.0000000  0  9G25G24G29G14G12G02G06G32G31
 -20343054.23947 -15828821.99747  20083499.197    20083498.5664   20083503.9764
        50.8004         47.8004
   2056764.87943   1629095.30746  24240637.341    24240639.8044   24240645.9054
        39.7004         37.1004
 -20757903.81646 -16152101.79247  21061783.440    21061783.6654   21061785.6724
        48.2004         45.1004
  -9675186.95744  -7525243.55046  22407533.090    22407532.7644   22407535.1044
        42.2004         39.5004
 -12803957.22445  -9954224.79247  21829976.979    21829976.7094   21829978.9544
        45.6004         43.0004
  -7026187.38945  -5458095.20046  23095561.697    23095560.4394   23095563.0874
        43.6004         40.7004
  -5033579.95843  -3903050.15446  24430102.048    24430102.4134   24430107.4604
        38.5004         36.2004
  -6176732.33445  -4791323.30746  22573149.470    22573149.8694   22573155.3474
        43.6004         40.6004
  -4378151.10945  -3400498.22347  22160051.380    22160051.4194   22160052.6994
        45.8004         43.0004
 19 10 19  0 26  0.0000000  0  9G25G24G29G14G12G02G06G32G31
 -20337625.87647 -15824592.10347  20084531.884    20084531.5284   20084537.0394
        51.0004         47.8004
   2166284.19043   1714435.00446  24261476.364    24261480.4224   24261486.5514
        39.6004         37.1004
 -20826060.00046 -16205210.49447  21048813.303    21048813.2604   21048816.1154
        48.1004         45.1004
  -9666656.99244  -7518596.83846  22409156.470    22409155.6984   22409158.7544
        42.3004         39.9004
 -12725905.75345  -9893405.48247  21844829.558    21844829.9704   21844832.1254
        45.6004         42.8004
  -7022056.16244  -5454876.03546  23096346.346    23096346.5844   23096348.1964
        43.4004         40.6004
  -4970503.72143  -3853899.82546  24442105.575    24442105.5484   24442110.6204
        38.3004         36.0004
  -6109577.04844  -4738994.53846  22585929.184    22585930.0084   22585933.2084
        43.4004         40.4004
  -4454809.64045  -3460232.15147  22145464.263    22145464.3464   22145464.4414
        45.6004         42.6004
 19 10 19  0 26 30.0000000  0  9G25G24G29G14G12G02G06G32G31
 -20331806.66247 -15820057.65948  20085639.134    20085638.9954   20085644.2244
        51.0004         48.0004
   2275910.19343   1799857.88846  24282336.685    24282340.9724   24282346.8864
        39.4004         36.7004
 -20893758.28746 -16257962.39947  21035931.021    21035930.9264   21035933.5634
        47.9004         45.1004
  -9657553.21044  -7511502.99246  22410888.198    22410887.9904   22410891.0104
        42.7004         40.0004
 -12647644.42145  -9832422.64347  21859722.341    21859722.2544   21859724.5614
        45.6004         42.8004
  -7017406.31644  -5451252.76746  23097231.814    23097231.7664   23097233.0864
        43.4004         40.7004
  -4906953.90843  -3804380.45145  24454197.508    24454197.3594   24454205.5204
        38.2004         35.9004
  -6041990.93944  -4686330.07446  22598789.484    22598790.3964   22598794.8584
        43.2004         40.2004
  -4531147.60845  -3519716.27847  22130937.401    22130937.3804   22130938.4554
        45.6004         42.6004
 19 10 19  0 27  0.0000000  0  9G25G24G29G14G12G02G06G32G31
 -20325596.81047 -15815218.81548  20086820.802    20086820.6314   20086826.1644
        51.0004         48.0004
   2385641.49743   1885362.78246  24303223.260    24303222.5274   24303228.2854
        39.2004         36.9004
 -20960997.10146 -16310356.28247  21023135.539    21023136.1214   21023138.8654
        47.9004         45.2004
  -9647875.95144  -7503962.29546  22412730.571    22412729.9694   22412733.2064
        42.9004         40.4004
 -12569173.46645  -9771276.47347  21874654.859    21874654.6794   21874657.2524
        45.6004         42.8004
